street_address,suburb,city,postcode,property_type2,bedrooms,bathrooms,garage_parks,offstreet_parks,Carparks,land_size,floor_size,year_built,last_rent_price,last_rent_date,days_on_market,agency,capital_value,land_value,improvement_value,valuation,land_use,development_zone,position,view,roof_construction,wall_construction,category,furnishings,furnishings_evidence,pets,garage,Latitude,Longitude
228 CRANFORD STREET,ST ALBANS,CHRISTCHURCH,8014,House,2,1,,2,2,718,,1930,320,10/02/2025,7,"Whittle Knight Real Estate Ltd, (Licensed: Reaa 2008)",760000,540000,220000,1/08/2022,Single Unit excluding Bach,Residential Suburban Density Transition,Inside,No appreciable view,Steel/G-Iron,Weatherboard,Residential-Dwelling-1930's-average,nill,,No,NO,-43.5032331,172.6335599
18 HAVELOCK STREET,PHILLIPSTOWN,CHRISTCHURCH,8011,Unit,1,1,1,,1,506,,1915,325,9/02/2025,7,-,475000,335000,140000,1/08/2022,Multi-unit,Central City Guest Accommodation,Inside,No appreciable view,Steel/G-Iron,"Roughcast,etc",Residential-Converted Flat-pre 1914-average,partial,washing machine,,YES,-43.5338798,172.6708942
40 GUILD STREET,RICHMOND,CHRISTCHURCH,8013,,1,1,6,,6,75,51,2021,330,28/02/2025,7,Shelleys Property Management,410000,220298.5075,189701.4925,1/08/2022,Multi-unit,Residential Suburban Density Transition,Inside,No appreciable view,Malthoid/Fab,Malthoid/Fab,Residential-Multiple Dwellings-Mixed Age-average,nill,,,YES,-43.5127678,172.6546786
2/16 Southampton Street,Sydenham,Christchurch City,8023,unit,1,1,,1,1,77,56,1960,330,27/08/2025,28,Real Property Management Ltd,800000,417529.8805,382470.1195,1/08/2022,Multi-unit,,Inside,No appreciable view,Tile Profile,Concrete,Residential-Purpose built flat-1960's-average,,,,No,-43.5523871,172.6378416
5/38 Guild Street,Richmond,Christchurch City,8013,unit,1,1,1,,1,77,56,2019,330,23/09/2025,1,Shelleys Property Management,630000,326666.6667,303333.3333,1/08/2022,Single Unit excluding Bach,Residential Suburban Density Transition,Corner,No appreciable view,Steel/G-Iron,"Roughcast,etc",Residential-Dwelling-2010/2019-average,,,,No,-43.5127633,172.6540995
290 Queen Elizabeth II Drive,Mairehau,Christchurch City,8052,house,1,1,1,1,1,102,78.93975904,2000,330,11/05/2025,136,myRent.co.nz Ltd,636825.3968,333328.0293,303497.3676,1/08/2022,Single Unit excluding Bach,Residential Suburban,Inside,No appreciable view,Steel/G-Iron,"Roughcast,etc",Residential-Vacant Block Land,Fully Furnished,,,Yes,-43.4889093,172.6476462
76 TANCRED STREET,LINWOOD,CHRISTCHURCH,8011,,1,1,,2,2,1012,,1915,330,5/03/2025,49,-,765000,755000,10000,1/08/2022,Multi-unit,Residential Suburban Density Transition,Inside,No appreciable view,Steel/G-Iron,"Roughcast,etc",Residential-Vacant Flat Land,partial,fridge,,NO,-43.5289731,172.6647625
2/59 WAIMEA TERRACE,BECKENHAM,CHRISTCHURCH,8023,Unit,1,1,2,,2,749,,1920,330,11/06/2025,2,"Holmwood Property Management - Sherborne, (Licensed: Reaa 2008)",720000,520000,200000,1/08/2022,Multi-unit,Residential Suburban,Inside,No appreciable view,Steel/G-Iron,Weatherboard,Residential-Converted Flat-pre 1914-average,nill,,,YES,-43.5616778,172.6405791
3/16 SOUTHAMPTON STREET,SYDENHAM,CHRISTCHURCH,8023,,1,1,1,,1,557,60,1960,330,27/08/2025,15,Real Property Management Ltd,800000,500000,300000,1/08/2022,Multi-unit,Residential Zone D,Inside,No appreciable view,Tile Profile,Concrete,Residential-Purpose built flat-1960's-average,nill,,,YES,-43.5523871,172.6378416
594 BARBADOES STREET,EDGEWARE,CHRISTCHURCH,8013,Unit,1,1,6,,6,71,54,1970,335,28/06/2025,7,-,480000,230718.232,249281.768,1/08/2022,Multi-unit,Residential Suburban Density Transition,Rear,No appreciable view,Tile Profile,Concrete,Residential-Purpose built flat-1970's-average,partial,dining table;double beds,,YES,-43.5123259,172.6463342
6/168 EDGEWARE ROAD,EDGEWARE,CHRISTCHURCH,8013,,1,1,,,,71,60,2025,335,15/02/2025,7,The Good Girls Property Management Ltd,315000,195000,120000,1/08/2022,Single Unit excluding Bach,Residential Medium Density,Inside,No appreciable view,Steel/G-Iron,Concrete,Residential-OYO-1960's-average,nill,,,NO,-43.514026,172.644092
1/59 Hansons Lane,Upper Riccarton,Christchurch City,2025,apartment,1,1,,1,1,77,56,,340,20/03/2025,188,"Rempstone Real Estate Limited, (Licensed: REAA 2008)",590000,256521.7391,333478.2609,1/08/2022,Special Accomodation,Residential Suburban,,,Steel/G-Iron,Mix.Material,Commercial-Elderly-Suburban-average,Fully Furnished,,,No,-43.5347495,172.5745395
4/62 Springfield Road,St. Albans,Christchurch City,8014,Apartment,1,1,,1,1,,120,1925,340,23/09/2025,1,,744000,410000,334000,1/08/2022,Single Unit excluding Bach,,Inside,No appreciable view,Steel/G-Iron,Weatherboard,Lifestyle-1970's-average,partial,fridge;washing machine,,No,-43.5179248,172.6327636
1/315 WORCESTER STREET,LINWOOD,CHRISTCHURCH,8011,,2,1,1,,1,,,,340,10/06/2025,7,Metro Advances Limited,,,295000,1/08/2022,Single Unit excluding Bach,Residential Medium Density,Inside,No appreciable view,Steel/G-Iron,"Roughcast,etc",Residential-OYO-1990's-average,,,,YES,-43.5305801,172.6519939
4/136 HOLLY ROAD,ST ALBANS,CHRISTCHURCH,8014,Unit,2,2,,,,,114,1970,345,7/06/2025,7,Rent Wise Property Management,830000,360000,470000,1/08/2022,Multi-unit,Residential Medium Density,,No appreciable view,Malthoid/Fab,Mix.Material,Residential-Purpose built flat-1970's-average,,,,NO,-43.5160647,172.6341354
8/20 AVALON STREET,RICHMOND,CHRISTCHURCH,8013,,1,1,,1,1,71,54,2025,350,28/02/2025,8,Slpm Ltd Auckland,285000,80000,205000,1/08/2022,Single Unit excluding Bach,Residential Medium Density,Inside,No appreciable view,Steel/G-Iron,Mix.Material,Residential-OYO-1970's-average,nill,,,NO,-43.5191738,172.6515736
9/20 AVALON STREET,RICHMOND,CHRISTCHURCH,8013,,1,1,,1,1,71,54,2025,350,20/03/2025,7,Slpm Ltd Auckland,285000,80000,205000,1/08/2022,Single Unit excluding Bach,Residential Medium Density,Inside,No appreciable view,Steel/G-Iron,Mix.Material,Residential-OYO-1970's-average,nill,,,NO,-43.5191745,172.6515088
5/20 AVALON STREET,RICHMOND,CHRISTCHURCH,8013,,1,1,,1,1,71,54,2025,350,30/05/2025,7,Slpm Ltd Auckland,285000,80000,205000,1/08/2022,Single Unit excluding Bach,Residential Medium Density,Inside,No appreciable view,Steel/G-Iron,Mix.Material,Residential-OYO-1970's-average,nill,,,NO,-43.5191719,172.6518111
6/20 AVALON STREET,RICHMOND,CHRISTCHURCH,8013,,1,1,,1,1,71,54,2025,350,8/07/2025,7,Slpm Ltd Auckland,285000,80000,205000,1/08/2022,Single Unit excluding Bach,Residential Medium Density,Inside,No appreciable view,Steel/G-Iron,Mix.Material,Residential-OYO-1970's-average,nill,unfurnished,,NO,-43.5191716,172.6517217
9A/13 Darvel,Riccarton,Christchurch City,,unit,1,1,,1,1,77,56,,350,3/08/2025,52,myRent.co.nz Ltd,630000,351191.4894,278808.5106,1/08/2022,Public Communal - Unlicenced,Residential Medium Density,,,Steel/G-Iron,Mix.Material,Commercial-Accom-Suburban-average,Fully Furnished,,,No,-43.5270758,172.6102659
14/545 Innes Road,Mairehau,Christchurch City,,apartment,1,1,,1,1,77,56,,350,15/08/2025,40,Superior Property Management Limited,590000,256521.7391,333478.2609,1/08/2022,Special Accomodation,Residential Suburban,,,Tile Profile,Brick,Commercial-Accom-Suburban-average,,,,No,-43.492613,172.6526548
15/545 Innes Road,Mairehau,Christchurch City,8052,apartment,1,1,,1,1,77,56,2025,350,5/09/2025,19,Superior Property Management Limited,590000,256521.7391,333478.2609,1/08/2022,Special Accomodation,Residential Suburban,,,Tile Profile,Brick,Commercial-Accom-Suburban-average,,,,No,-43.492613,172.6526548
16/545 Innes Road,Mairehau,Christchurch City,,apartment,1,1,,1,1,77,56,,350,5/09/2025,19,Superior Property Management Limited,590000,256521.7391,333478.2609,1/08/2022,Special Accomodation,Residential Suburban,,,Tile Profile,Brick,Commercial-Accom-Suburban-average,,,,No,-43.492613,172.6526548
6/352 Gloucester Street,City Centre,Christchurch City,,apartment,1,1,,1,,64,58,,350,18/09/2025,6,Metro Advances Limited,400000,170000,230000,1/08/2022,Single Unit excluding Bach,Central City Guest Accommodation,Inside,No appreciable view,Steel/G-Iron,Concrete,Residential-Apartment-2010/2019-average,,,,No,-43.5298758,172.634318
6/5 HAAST STREET,LINWOOD,CHRISTCHURCH,8011,,1,1,1,,1,71,60,2025,350,10/03/2025,120,Cowdy,310000,175000,135000,1/08/2022,Single Unit excluding Bach,Residential Medium Density,Inside,No appreciable view,Steel/G-Iron,Concrete,Residential-OYO-1960's-average,nill,,,YES,-43.5272573,172.6542711
2/42 REDRUTH AVENUE,SPREYDON,CHRISTCHURCH,8024,Unit,1,2,,2,2,624,110,1915,350,18/03/2025,7,Harcourts Asset Managers,630000,450000,180000,1/08/2022,Multi-unit,Residential Suburban Density Transition,Inside,No appreciable view,Steel/G-Iron,Weatherboard,Residential-Converted Flat-1914/1929-average,nill,,,NO,-43.5494703,172.6253728
3/20 CADOGAN STREET,SYDENHAM,CHRISTCHURCH,8023,Unit,2,1,,1,1,,60,1975,350,21/02/2025,7,"Whittle Knight Real Estate Ltd, (Licensed: Reaa 2008)",350000,225000,125000,1/08/2022,Single Unit excluding Bach,Central City Guest Accommodation,Inside,No appreciable view,Tile Profile,Concrete,Residential-OYO-1970's-average,nill,,,NO,-43.5489834,172.6404067
53 FLEMINGTON AVENUE,NORTH NEW BRIGHTON,CHRISTCHURCH,8083,House,2,2,,,,569,86,1982,350,7/07/2025,7,Veterinary Nurse Services,340000,260000,80000,1/08/2022,Single Unit excluding Bach,Residential Suburban,Inside,No appreciable view,Steel/G-Iron,Mix.Material,Residential-Dwelling-Mixed Age-poor,nill,,,NO,-43.4891115,172.7107878
44 NGARIMU STREET,AVONSIDE,CHRISTCHURCH,8061,Unit,2,2,,2,2,663,95,1890,350,29/05/2025,7,Quinovic Merivale,410000,285000,125000,1/08/2022,Multi-unit,Residential Suburban,Inside,No appreciable view,Steel/G-Iron,Weatherboard,Residential-Converted Flat-pre 1914-average,nill,,,NO,-43.5220032,172.6744997
56 MACKWORTH STREET,WOOLSTON,CHRISTCHURCH,8062,House,2,1,,1,1,1012,113,1945,350,25/05/2025,3,Iron Bridge Property Management - Christchurch,540000,485000,55000,1/08/2022,Single Unit excluding Bach,Residential Suburban Density Transition,Inside,No appreciable view,Fibre Cement,Weatherboard,Residential-Dwelling-1940's-average,nill,,,NO,-43.5412681,172.6721027
3/12 COOPERS ROAD,DALLINGTON,CHRISTCHURCH,8061,Unit,2,1,,2,2,697,,1905,355,16/08/2025,62,Quinovic Riccarton,570000,270000,300000,1/08/2022,Multi-unit,Residential Suburban,Rear,No appreciable view,Steel/G-Iron,Weatherboard,Residential-Converted Flat-pre 1914-average,partial,fridge;fridge/freezer,,NO,-43.5109725,172.6672317
1/24 LONGFELLOW STREET,SYDENHAM,CHRISTCHURCH,8023,Unit,2,1,,1,1,,80,1975,359,23/01/2025,8,"Braziers Limited, (Licensed: Reaa 2008)",430000,270000,160000,1/08/2022,Single Unit excluding Bach,Residential Suburban Density Transition,Inside,No appreciable view,Tile Profile,Brick,Residential-OYO-1970's-average,nill,,,NO,-43.5567748,172.6408425
1/24 Longfellow Street,Sydenham,Christchurch City,8023,unit,2,1,1,1,1,140,80,1975,359,19/09/2025,5,"Braziers Limited, (Licensed: REAA 2008)",430000,270000,160000,1/08/2022,Single Unit excluding Bach,Residential Suburban Density Transition,Inside,No appreciable view,Tile Profile,Brick,Residential-OYO-1970's-average,,,,Yes,-43.5567725,172.641105
2/137 Chester Street East,City Centre,Christchurch City,8011,unit,1,1,,1,1,77,40,1970,360,,,Holmwood Property Management,290000,203508.7719,86491.22807,1/08/2022,Multi-unit,Central City Guest Accommodation,Rear,No appreciable view,Steel/G-Iron,Mix.Material,Residential-OYO-1970's-average,,,,No,-43.527477,172.6471931
2/28 Avonside Drive,City Centre,Christchurch City,8011,apartment,1,1,,1,1,64,52,1915,360,12/06/2025,104,,590000,305000,285000,1/08/2022,Multi-unit,Residential Suburban,Inside,No appreciable view,Steel/G-Iron,Weatherboard,Residential-Converted Flat-1914/1929-average,partial,fridge,,No,-43.5265672,172.6524304
5/354 Durham Street North,City Centre,Christchurch City,8013,unit,1,1,,1,1,77,54.5,2025,360,19/08/2025,36,Real Property Management Ltd,600000,354098.3607,245901.6393,1/08/2022,Multi-unit,Central City Guest Accommodation,Corner,No appreciable view,Steel/G-Iron,Concrete,Residential-Purpose built flat-1930's-average,,,,No,-43.524214,172.6337795
33 Erica street,Papanui,Christchurch City,2025,house,1,1,,1,1,77,56,,360,26/09/2025,0,,590000,275506.6079,314493.3921,1/08/2022,Special Accomodation,Residential Suburban,,,Steel/G-Iron,Mix.Material,Commercial-Accom-Suburban-average,Fully Furnished,,,No,-43.4983076,172.6179792
2/114 King Street,Sydenham,Christchurch City,8023,unit,1,1,,1,1,77,70,1975,360,1/09/2025,23,"Holmwood Property Management - Sherborne, (Licensed: REAA 2008)",315000,175000,140000,1/08/2022,Single Unit excluding Bach,Residential Medium Density,Inside,No appreciable view,Steel/G-Iron,Concrete,Residential-OYO-1970's-average,,,,No,-43.554196,172.6427681
3/62 Springfield Road,St. Albans,Christchurch City,8014,Apartment,1,1,,1,1,,120,1925,360,23/09/2025,1,,744000,410000,334000,1/08/2022,Single Unit excluding Bach,,Inside,No appreciable view,Steel/G-Iron,Weatherboard,Lifestyle-1970's-average,partial,fridge;washing machine,,No,-43.5179248,172.6327636
6/93 RACECOURSE ROAD,SOCKBURN,CHRISTCHURCH,8042,Unit,2,1,,1,1,,50,1975,360,1/07/2025,7,Bayleys Property Management Ltd,290000,114000,176000,1/08/2022,Single Unit excluding Bach,Residential Suburban,Inside,No appreciable view,Steel/G-Iron,Concrete,Residential-OYO-1970's-average,nill,,,NO,-43.5296822,172.5514032
2/114 KING STREET,SYDENHAM,CHRISTCHURCH,8023,Unit,2,1,,1,1,,70,1975,360,2/09/2025,9,"Holmwood Property Management - Sherborne, (Licensed: Reaa 2008)",315000,175000,140000,1/08/2022,Single Unit excluding Bach,Residential Medium Density,Inside,No appreciable view,Steel/G-Iron,Concrete,Residential-OYO-1970's-average,nill,,,NO,-43.5543076,172.6426243
394 HAREWOOD ROAD,BISHOPDALE,CHRISTCHURCH,8053,Unit,2,1,,,,98,92,1983,360,14/08/2025,372,-,520000,247619.0476,272380.9524,1/08/2022,Multi-unit,Residential Suburban,,No appreciable view,Tile Profile,Concrete,Residential-Purpose built flat-1980's-average,nill,,,NO,-43.4849482,172.5823669
676 WORCESTER STREET,LINWOOD,CHRISTCHURCH,8062,Unit,2,2,,2,2,438,120,1905,360,18/06/2025,36,Vision Property Management,465000,260000,205000,1/08/2022,Multi-unit,Central City Guest Accommodation,Inside,No appreciable view,Steel/G-Iron,"Roughcast,etc",Residential-Converted Flat-pre 1914-average,nill,,,NO,-43.5268112,172.6744517
3/168 EDGEWARE ROAD,EDGEWARE,CHRISTCHURCH,8013,,2,1,1,,1,102,60,2025,365,5/06/2025,7,The Good Girls Property Management Ltd,315000,125357.1429,189642.8571,1/08/2022,Single Unit excluding Bach,Residential Medium Density,Inside,No appreciable view,Steel/G-Iron,Mix.Material,Residential-OYO-2020/2029-average,,,,YES,-43.5137301,172.6441086
416 WORCESTER STREET,LINWOOD,CHRISTCHURCH,8011,Unit,2,1,4,,4,98,73,1965,365,28/05/2025,13,The Good Girls Property Management Ltd,540000,184615.3846,355384.6154,1/08/2022,Multi-unit,Residential Zone D,Inside,No appreciable view,Steel/G-Iron,Concrete,Residential-Purpose built flat-1960's-average,partial,washing machine,,YES,-43.5310766,172.6589858
77E BORDESLEY STREET,PHILLIPSTOWN,CHRISTCHURCH,8011,,1,1,,,,112,44,2000,370,29/08/2025,12,Propertyscouts Christchurch Metro,270000,130000,140000,1/08/2022,Single Unit excluding Bach,Residential Medium Density,Inside,No appreciable view,Steel/G-Iron,"Roughcast,etc",Residential-OYO-2000/2009-average,nill,,,NO,-43.5378493,172.663703
6B MACMILLAN AVENUE,CASHMERE,CHRISTCHURCH,8022,Unit,1,1,,3,3,71,54,1920,370,4/08/2025,240,"Whittle Knight Real Estate Ltd, (Licensed: Reaa 2008)",480000,230718.232,249281.768,1/08/2022,Multi-unit,Residential Hills,Rear,Focal Point Of view - Other,Tile Profile,Weatherboard,Residential-Converted Flat-1914/1929-average,nill,,,NO,-43.5725078,172.6285699
1b/6B MacMillan Avenue,Cashmere,Christchurch City,8022,apartment,1,1,,3,1,77,56,2025,370,4/08/2025,51,"Whittle Knight Real Estate Ltd, (Licensed: REAA 2008)",590000,256521.7391,333478.2609,1/08/2022,Multi-unit,Residential Hills,Rear,Focal Point Of view - Other,Tile Profile,Weatherboard,Residential-Converted Flat-1914/1929-average,,,,No,-43.5725078,172.6285699
454 Greers Rd,Bishopdale,Christchurch City,8053,apartment,1,1,,2,1,77,56,1960,370,21/08/2025,34,Trust Living Investment Limited,590000,256521.7391,333478.2609,1/08/2022,Single Unit excluding Bach,Residential Suburban,Inside,No appreciable view,Tile Profile,Concrete,Residential-Dwelling-1960's-average,Fully Furnished,,,No,-43.4873216,172.5967557
19/545 Innes Road,Mairehau,Christchurch City,,apartment,1,1,,1,1,77,56,,370,5/09/2025,19,Superior Property Management Limited,590000,256521.7391,333478.2609,1/08/2022,Special Accomodation,Residential Suburban,,,Tile Profile,Brick,Commercial-Accom-Suburban-average,,,,No,-43.492613,172.6526548
4/5 HAAST STREET,LINWOOD,CHRISTCHURCH,8011,,1,1,,,,71,60,2025,370,1/05/2025,7,Bayleys Property Management Ltd,310000,175000,135000,1/08/2022,Single Unit excluding Bach,Residential Medium Density,Inside,No appreciable view,Steel/G-Iron,Concrete,Residential-OYO-1960's-average,nill,,,NO,-43.5273943,172.6542673
GrannyFlat/156 Hills Rd,Edgeware,Christchurch City,,apartment,1,1,,1,1,83,74,,370,22/09/2025,2,,615000,215000,400000,1/08/2022,Single Unit excluding Bach,Residential Suburban Density Transition,Inside,No appreciable view,Steel/G-Iron,Brick,Residential-OYO-2020/2029-average,partial,washing machine,,No,-43.5109213,172.6519135
GrannyFlat/156 Hills Rd,Edgeware,Christchurch City,,apartment,1,1,,1,1,83,74,,370,22/09/2025,2,,615000,215000,400000,1/08/2022,Single Unit excluding Bach,Residential Suburban Density Transition,Inside,No appreciable view,Steel/G-Iron,Brick,Residential-OYO-2020/2029-average,partial,washing machine,,No,-43.5109213,172.6519135
2/27 PURCHAS STREET,ST ALBANS,CHRISTCHURCH,8014,,1,1,3,,3,508,,2000,370,21/05/2025,7,-,810000,670000,140000,1/08/2022,Multi-unit,Residential Medium Density,Inside,No appreciable view,Steel/G-Iron,Weatherboard,Residential-Home & Income-Mixed Age-average,Fully Furnished,,,YES,-43.5184724,172.6377678
3/85 HILLS ROAD,EDGEWARE,CHRISTCHURCH,8013,,2,1,,1,1,1075,,1960,370,31/01/2025,7,The Good Girls Property Management Ltd,,,140000,1/08/2022,Multi-unit,Residential Suburban Density Transition,Rear,No appreciable view,Steel/G-Iron,Concrete,Residential-OYO-1960's-average,nill,,,NO,-43.514516,172.6511168
5/106 NURSERY ROAD,PHILLIPSTOWN,CHRISTCHURCH,8011,Unit,1,1,,,,,40,1975,375,16/01/2025,7,Real Property Management Ltd,265000,110000,155000,1/08/2022,Single Unit excluding Bach,Residential Medium Density,Inside,No appreciable view,Steel/G-Iron,Mix.Material,Residential-OYO-1970's-average,nill,,,NO,-43.5343837,172.6585559
1/41 ONSLOW STREET,ST ALBANS,CHRISTCHURCH,8014,Unit,1,1,,4,4,71,50.5,1960,375,29/05/2025,15,"Braziers Limited, (Licensed: Reaa 2008)",470000,230300,239700,1/08/2022,Multi-unit,Residential Medium Density,Inside,No appreciable view,Tile Profile,Concrete,Residential-Purpose built flat-1960's-average,partial,fridge;washing machine,Pets OK,NO,-43.5180393,172.6274542
7/545 Innes Road,Mairehau,Christchurch City,,apartment,1,1,,1,1,77,56,,375,1/09/2025,23,Superior Property Management Limited,590000,256521.7391,333478.2609,1/08/2022,Special Accomodation,Residential Suburban,,,Tile Profile,Brick,Commercial-Accom-Suburban-average,,,,No,-43.492613,172.6526548
8/507 CASHEL STREET,LINWOOD,CHRISTCHURCH,8011,Unit,2,1,1,,1,,60,1975,375,18/03/2025,7,The Good Girls Property Management Ltd,310000,140000,170000,1/08/2022,Single Unit excluding Bach,Residential Medium Density,Inside,No appreciable view,Steel/G-Iron,Mix.Material,Residential-OYO-1970's-average,nill,,,YES,-43.532679,172.6617246
1/129 GERALDINE STREET,EDGEWARE,CHRISTCHURCH,8013,Unit,2,1,,1,1,,64,1970,375,8/04/2025,7,"Holmwood Property Management - Sherborne, (Licensed: Reaa 2008)",355000,225000,130000,1/08/2022,Single Unit excluding Bach,Residential Medium Density,Inside,No appreciable view,Steel/G-Iron,Concrete,Residential-OYO-1970's-average,,,,NO,-43.5144396,172.6472652
5/433 WORCESTER STREET,LINWOOD,CHRISTCHURCH,8011,Unit,2,1,1,,1,,70,1975,375,6/04/2025,64,Prestige Property Management Ltd,360000,220000,140000,1/08/2022,Single Unit excluding Bach,Residential Zone D,Inside,No appreciable view,Tile Profile,Concrete,Residential-OYO-1970's-average,partial,dining table,,YES,-43.5304278,172.6593885
2/620 Cashel Street,Linwood,Christchurch City,8011,house,2,1,1,1,1,838.95,70,1915,375,28/07/2025,58,"Najib Real Estate Ltd, (Licensed: REAA 2008)",370000,175000,195000,1/08/2022,Single Unit excluding Bach,Central City Guest Accommodation,Inside,No appreciable view,Steel/G-Iron,Concrete,Residential-OYO-1970's-average,partial,fridge,,Yes,-43.5331906,172.6692614
4/29 Heywood Terrace,Richmond,Christchurch City,8013,unit,2,1,,1,1,106,70,1965,375,16/09/2025,8,"Whittle Knight Real Estate Ltd, (Licensed: REAA 2008)",410000,175000,235000,1/08/2022,Single Unit excluding Bach,Residential Medium Density,Inside,No appreciable view,Steel/G-Iron,Brick,Residential-OYO-1960's-average,,,,No,-43.5235319,172.6526513
1/58 SHERBORNE STREET,ST ALBANS,CHRISTCHURCH,8014,Unit,2,1,,2,4,101,76,1965,375,8/04/2025,7,The Good Girls Property Management Ltd,630000,310873.3624,319126.6376,1/08/2022,Multi-unit,Residential Medium Density,Inside,No appreciable view,Steel/G-Iron,Brick,Residential-Purpose built flat-1960's-average,nill,,,NO,-43.5170243,172.6380979
1/7 ALBEMARLE STREET,SYDENHAM,CHRISTCHURCH,8023,Unit,2,1,,2,2,354,100,1975,375,10/06/2025,7,Bayleys Property Management Ltd,510000,340000,170000,1/08/2022,Multi-unit,Central City Guest Accommodation,Inside,No appreciable view,Steel/G-Iron,Concrete,Residential-Purpose built flat-1970's-average,nill,,,NO,-43.5481291,172.6411382
128A Cranford Street,St. Albans,Christchurch City,8014,unit,2,1,1,,2,140,120,1910,375,22/09/2025,2,Holmwood Property Management,600000,410000,190000,1/08/2022,Multi-unit,Residential Suburban Density Transition,Inside,No appreciable view,Steel/G-Iron,"Roughcast,etc",Residential-Converted Flat-1914/1929-average,nill,unfurnished,,Yes,-43.507376,172.6374609
6/72 ALEXANDRA STREET,RICHMOND,CHRISTCHURCH,8013,Unit,1,1,,2,6,935,,1975,379,15/07/2025,47,Quinovic Riccarton,1190000,855000,335000,1/08/2022,Multi-unit,Residential Zone D,Inside,No appreciable view,Tile Profile,Brick,Residential-Purpose built flat-1970's-average,nill,,No,NO,-43.5229255,172.6553556
G04/171 St Asaph Street,City Centre,Christchurch City,,apartment,1,1,,1,1,60,52,,380,2/05/2025,145,Orbit Property Management,510000,237326.7327,272673.2673,1/08/2022,Multi-use within Commercial,Commercial Central City (South Frame) Mixed Use,,,Steel/G-Iron,Mix.Material,Commercial-Multiple/Other-CBD,nill,unfurnished,,No,-43.5360612,172.6351713
G04/171 St Asaph Street,City Centre,Christchurch City,,apartment,1,1,,1,1,60,52,,380,2/05/2025,145,Orbit Property Management,510000,237326.7327,272673.2673,1/08/2022,Multi-use within Commercial,Commercial Central City (South Frame) Mixed Use,,,Steel/G-Iron,Mix.Material,Commercial-Multiple/Other-CBD,nill,unfurnished,,No,-43.5360612,172.6351713
16/126 NURSERY ROAD,LINWOOD,CHRISTCHURCH,8011,Apartment,1,1,,,,75,53,2025,380,30/05/2025,141,A1 Property Managers Ltd,280000,125000,155000,1/08/2022,Single Unit excluding Bach,Residential Medium Density,Corner,No appreciable view,Steel/G-Iron,Concrete,Residential-Apartment-2010/2019-average,nill,,,NO,-43.539553,172.6561557
8 Clearwater Avenue,Northwood,Christchurch City,8051,house,1,1,3,,1,77,56,2001,380,24/03/2025,184,Trust Living Investment Limited,590000,275506.6079,314493.3921,1/08/2022,Multi Unit - Lifestyle,Rural Urban Fringe,Inside,Focal Point Of view - Water,Tile Profile,"Roughcast,etc",Lifestyle-2000/2009 superior,partial,dining table;fridge;microwave;washing machine,,No,-43.4569053,172.5974104
11/168 Stanmore Road,Linwood,Christchurch City,2025,apartment,1,1,,1,1,77,56,,380,12/08/2025,43,A1 Property Managers Ltd,540000,337894.7368,202105.2632,1/08/2022,Multi-unit,Central City Guest Accommodation,Inside,No appreciable view,Steel/G-Iron,"Roughcast,etc",Residential-Converted Flat-pre 1914-average,,,,No,-43.5267755,172.6581182
1/77 SHERBORNE STREET,ST ALBANS,CHRISTCHURCH,8014,,1,1,1,,1,506,120,2000,380,21/05/2025,7,First National Lethbridge,620000,560000,60000,1/08/2022,Multi-unit,Residential Medium Density,Inside,No appreciable view,Steel/G-Iron,"Roughcast,etc",Residential-Vacant Flat Land,nill,,Pets OK,YES,-43.5169955,172.637749
173 SPRINGFIELD ROAD,ST ALBANS,CHRISTCHURCH,8014,,1,1,6,,6,1070,,2000,380,7/08/2025,7,Property Partner,1280000,760000,520000,1/08/2022,Multi-unit,Residential Suburban Density Transition,Inside,No appreciable view,Steel/G-Iron,Concrete,Residential-Purpose built flat-Mixed Age-average,nill,,,YES,-43.512157,172.6315835
10 BRYNLEY STREET,HORNBY,CHRISTCHURCH,8042,,1,1,,1,1,956,,2000,380,15/08/2025,239,"Cowdy, (Licensed: Reaa 2008)",,,,1/08/2022,Multi-unit,Central City Guest Accommodation,Inside,No appreciable view,Steel/G-Iron,Mix.Material,Residential-Multiple Dwellings-Mixed Age-average,nill,,,NO,-43.5443252,172.5278531
2/36 GERALDINE STREET,EDGEWARE,CHRISTCHURCH,8013,Unit,2,1,,1,1,,60,1975,380,28/07/2025,7,Xclusive Property Management,350000,265000,85000,1/08/2022,Single Unit excluding Bach,Residential Medium Density,Inside,No appreciable view,Tile Profile,Concrete,Residential-OYO-1970's-average,nill,,,NO,-43.5191313,172.6478377
4/74 BRYNLEY STREET,HORNBY,CHRISTCHURCH,8042,Unit,2,1,,1,1,,63,1970,380,21/07/2025,7,"Irelands, (Licensed: Reaa 2008)",400000,255000,145000,1/08/2022,Single Unit excluding Bach,Central City Guest Accommodation,Rear,No appreciable view,Steel/G-Iron,Concrete,Residential-OYO-1970's-average,partial,washing machine,,NO,-43.5488052,172.5328814
3/15 SOMERSET CRESCENT,SPREYDON,CHRISTCHURCH,8024,Unit,2,1,,1,1,,71,1970,380,9/08/2025,7,-,360000,275000,85000,1/08/2022,Single Unit excluding Bach,Residential Medium Density,Rear,No appreciable view,Tile Profile,Concrete,Residential-OYO-1970's-average,nill,,,NO,-43.548894,172.6192614
1/33 SUFFOLK STREET,PHILLIPSTOWN,CHRISTCHURCH,8011,,2,1,1,,1,94.5,72,2025,380,3/04/2025,7,The Good Girls Property Management Ltd,410000,190000,220000,1/08/2022,Single Unit excluding Bach,Residential Medium Density,Inside,No appreciable view,Steel/G-Iron,Concrete,Residential-OYO-1960's-average,nill,,,YES,-43.5338159,172.6608402
107 WALTHAM ROAD,SYDENHAM,CHRISTCHURCH,8023,Unit,2,1,,2,6,106,74.5,1970,380,3/07/2025,2,Inspire Property Management,545000,210000,335000,1/08/2022,Multi-unit,Residential Medium Density,Inside,No appreciable view,Steel/G-Iron,Mix.Material,Residential-Purpose built flat-1970's-average,nill,,,NO,-43.5495701,172.6464177
33A FENDALTON ROAD,FENDALTON,CHRISTCHURCH,8014,Unit,2,1,,4,4,98,80,1960,380,26/02/2025,7,-,700000,556164.3836,143835.6164,1/08/2022,Multi-unit,Residential Suburban,Inside,No appreciable view,Steel/G-Iron,Brick,Residential-Purpose built flat-1960's-average,nill,,,NO,-43.5219854,172.6093749
4/359 Gloucester Street,Linwood,Christchurch City,8011,unit,2,1,1,1,2,140,83.25,2025,380,10/09/2025,14,"Braziers Limited, (Licensed: REAA 2008)",750000,381901.8405,368098.1595,1/08/2022,Multi-unit,Residential Medium Density,Inside,No appreciable view,Steel/G-Iron,Mix.Material,Residential-Purpose built flat-Mixed Age-average,,,,Yes,-43.5294774,172.6519748
42A Hansons Lane,Upper Riccarton,Christchurch City,8041,Unit,2,1,,1,1,612,100,1950,380,27/08/2025,28,Wolfbrook Property Management,580000,405000,175000,1/08/2022,Multi-unit,Central City Guest Accommodation,Inside,No appreciable view,Tile Profile,"Roughcast,etc",Residential-OYO-1950's-poor,,,Pets OK,No,-43.5320999,172.5737463
42 HANSONS LANE,UPPER RICCARTON,CHRISTCHURCH,8041,Unit,2,1,,1,1,123,100,1950,380,28/08/2025,13,Wolfbrook Property Management,580000,346666.6667,233333.3333,1/08/2022,Multi-unit,Central City Guest Accommodation,Inside,No appreciable view,Tile Profile,"Roughcast,etc",Residential-OYO-1950's-poor,nill,,Pets OK,NO,-43.5349811,172.5739698
2/24 HAAST STREET,LINWOOD,CHRISTCHURCH,8011,Unit,2,1,,,,521,130,1925,380,15/07/2025,7,Harcourts Vision Property Management Ltd,530000,405000,125000,1/08/2022,Multi-unit,Residential Medium Density,Inside,No appreciable view,Steel/G-Iron,"Roughcast,etc",Residential-Converted Flat-1914/1929-average,nill,,,NO,-43.5278904,172.6553932
4/556 HEREFORD STREET,LINWOOD,CHRISTCHURCH,8011,Unit,2,1,1,,1,,70,1975,380,8/07/2025,7,The Good Girls Property Management Ltd,1050000,615000,435000,1/08/2022,Multi-unit,Central City Guest Accommodation,Inside,No appreciable view,Steel/G-Iron,Concrete,Residential-Purpose built flat-1970's-average,nill,,,YES,-43.5322032,172.6650832
1054 COLOMBO STREET,ST ALBANS,CHRISTCHURCH,8014,Unit,1,1,,,,71,50.5,1985,385,17/05/2025,71,"Braziers Limited, (Licensed: Reaa 2008)",470000,230300,239700,1/08/2022,Multi-unit,Residential Zone D,Inside,No appreciable view,Steel/G-Iron,Concrete,Residential-Purpose built flat-1980's-average,nill,,No,NO,-43.5144386,172.6367842
6/613 Cashel Street,Linwood,Christchurch City,8011,apartment,1,1,2,,1,77,56,2025,385,9/09/2025,15,Metro Advances Limited,527500,237153.3613,290346.6387,1/08/2022,Multi-unit,Central City Guest Accommodation,Inside,No appreciable view,Steel/G-Iron,Concrete,Residential-Purpose built flat-1970's-average,nill,unfurnished,,No,-43.53276,172.6690972
1/15 Shearer Ave,Papanui,Christchurch City,8052,house,1,1,,1,1,77,56,1950,385,15/09/2025,9,Quality Property Management,790000,543766.2338,246233.7662,1/08/2022,Multi-unit,Residential Medium Density,Inside,No appreciable view,Tile Profile,Brick,Residential-Purpose built flat-1950's-average,partial,fridge;washing machine,Pets OK,No,-43.491433,172.614931
8-1054 Colombo Street,St. Albans,Christchurch City,,unit,1,1,,1,1,77,56,,385,24/09/2025,0,"Braziers Limited, (Licensed: REAA 2008)",630000,351191.4894,278808.5106,1/08/2022,Single Unit excluding Bach,Commercial Local,Inside,No appreciable view,Tile Profile,"Roughcast,etc",Residential-Dwelling-1914/1929-poor,,,,No,-43.5112802,172.6262743
22 Alexandra Street,Richmond,Christchurch City,8013,Unit,1,1,,1,,812,160,1905,385,26/08/2025,29,Metro Advances Limited,675000,665000,10000,1/08/2022,Multi-unit,Residential Medium Density,Inside,No appreciable view,Steel/G-Iron,"Roughcast,etc",Residential-Vacant Flat Land,,,,No,-43.5228618,172.652118
142 WAIMAIRI ROAD,ILAM,CHRISTCHURCH,8041,Unit,1,1,,5,5,607,,1960,385,24/01/2025,9,Quinovic Riccarton,1120000,680000,440000,1/08/2022,Multi-unit,Residential Suburban Density Transition,Inside,No appreciable view,Steel/G-Iron,Concrete,Residential-Purpose built flat-1960's-average,nill,,,NO,-43.51996,172.5727881
22 ALEXANDRA STREET,RICHMOND,CHRISTCHURCH,8013,,1,1,,,,812,,1905,385,26/08/2025,36,Metro Advances Limited,675000,665000,10000,1/08/2022,Multi-unit,Residential Medium Density,Inside,No appreciable view,Steel/G-Iron,"Roughcast,etc",Residential-Vacant Flat Land,nill,,,NO,-43.5228618,172.652118
10/300 Armagh Street,City Centre,Christchurch City,8011,apartment,2,1,,1,2,76,72.5,2025,385,19/09/2025,5,The Good Girls Property Management Ltd,582500,293827.4336,288672.5664,1/08/2022,Multi-unit,Central City Guest Accommodation,Inside,No appreciable view,Steel/G-Iron,Mix.Material,Residential-Purpose built flat-1970's-average,partial,fridge,,No,-43.5288721,172.6467645
133 CANON STREET,EDGEWARE,CHRISTCHURCH,8013,Unit,2,2,,,,433,120,1910,385,31/03/2025,165,Cowdy,640000,550000,90000,1/08/2022,Multi-unit,Residential Medium Density,Inside,No appreciable view,Steel/G-Iron,Weatherboard,Residential-Converted Flat-1914/1929-average,nill,,,NO,-43.5155145,172.6452868
5/39 WARD STREET,ADDINGTON,CHRISTCHURCH,8024,Unit,2,1,,1,1,,61,1970,389,7/03/2025,7,"Braziers Limited, (Licensed: Reaa 2008)",370000,116000,254000,1/08/2022,Single Unit excluding Bach,Residential Medium Density,Rear,No appreciable view,Tile Profile,Concrete,Residential-OYO-1970's-average,partial,fridge;fridge/freezer,No,NO,-43.545231,172.6195364
6/39 WARD STREET,ADDINGTON,CHRISTCHURCH,8024,Unit,2,1,,1,1,,61,1970,389,6/05/2025,7,"Braziers Limited, (Licensed: Reaa 2008)",370000,116000,254000,1/08/2022,Single Unit excluding Bach,Residential Medium Density,Rear,No appreciable view,Tile Profile,Concrete,Residential-OYO-1970's-average,partial,washing machine,No,NO,-43.5451956,172.6195324
2/39 WARD STREET,ADDINGTON,CHRISTCHURCH,8024,Unit,2,1,,1,1,,61,1970,389,24/08/2025,20,"Braziers Limited, (Licensed: Reaa 2008)",370000,116000,254000,1/08/2022,Single Unit excluding Bach,Residential Medium Density,Rear,No appreciable view,Tile Profile,Concrete,Residential-OYO-1970's-average,nill,,No,NO,-43.5453648,172.6195335
510 BARBADOES STREET,EDGEWARE,CHRISTCHURCH,8013,,2,1,4,,4,1062,,2000,389,19/05/2025,51,"Braziers Limited, (Licensed: Reaa 2008)",1160000,1050000,110000,1/08/2022,Multi-unit,Residential Medium Density,Inside,No appreciable view,Mix.Material,Mix.Material,Residential-Purpose built flat-Mixed Age-average,nill,,No,YES,-43.5164048,172.6463486
7/137 Chester Street East,City Centre,Christchurch City,8011,apartment,1,1,1,,1,100,40,1970,390,2/09/2025,22,"Ray White New Brighton (Results Realty Ltd), (Licensed: REAA 2008)",335000,124000,211000,1/08/2022,Single Unit excluding Bach,Central City Guest Accommodation,Rear,No appreciable view,Steel/G-Iron,Mix.Material,Residential-OYO-1970's-average,partial,fridge;washing machine,,Yes,-43.527477,172.6471931
1/20 LEYDEN STREET,PHILLIPSTOWN,CHRISTCHURCH,8011,,1,1,,1,1,,46,2000,390,4/06/2025,15,Rent Wise Property Management,310000,155000,155000,1/08/2022,Single Unit excluding Bach,Residential Medium Density,Inside,No appreciable view,Steel/G-Iron,Mix.Material,Residential-OYO-2000/2009-average,nill,,,NO,-43.5391188,172.6577851
5/4 HENDON STREET,EDGEWARE,CHRISTCHURCH,8013,,1,1,1,,1,71,50,2025,390,27/03/2025,8,Irelands,355000,125000,230000,1/08/2022,Single Unit excluding Bach,Residential Suburban Density Transition,Rear,No appreciable view,Steel/G-Iron,Concrete,Residential-OYO-1970's-average,nill,,,YES,-43.5126476,172.648518
2/371 HEREFORD STREET,LINWOOD,CHRISTCHURCH,8011,,1,1,1,,1,71,50,2025,390,13/06/2025,7,"Glass Miles Ltd, (Licensed: Reaa 2008)",230000,130000,100000,1/08/2022,Single Unit excluding Bach,Residential Medium Density,Inside,No appreciable view,Steel/G-Iron,Concrete,Residential-OYO-1970's-average,nill,,,YES,-43.5317729,172.6533376
1/8 Clearwater Avenue,Northwood,Christchurch City,8051,house,1,1,3,,1,77,56,2001,390,16/05/2025,131,Trust Living Investment Limited,590000,275506.6079,314493.3921,1/08/2022,Multi Unit - Lifestyle,Rural Urban Fringe,Inside,Focal Point Of view - Water,Tile Profile,"Roughcast,etc",Lifestyle-2000/2009 superior,Fully Furnished,,,No,-43.4569053,172.5974104
4/31 DRAPER STREET,RICHMOND,CHRISTCHURCH,8013,Unit,2,1,,1,1,,54,1975,390,21/07/2025,7,Iron Bridge Property Management - Christchurch,340000,210000,130000,1/08/2022,Multi-unit,Residential Medium Density,Inside,No appreciable view,Steel/G-Iron,Concrete,Residential-OYO-1970's-average,nill,,No,NO,-43.5234279,172.6557514
6/31 DRAPER STREET,RICHMOND,CHRISTCHURCH,8013,Unit,2,1,,1,1,,54,1970,390,28/07/2025,7,Iron Bridge Chch 01,340000,210000,130000,1/08/2022,Multi-unit,Residential Medium Density,Inside,No appreciable view,Steel/G-Iron,"Roughcast,etc",Residential-OYO-1970's-average,nill,,,NO,-43.5233514,172.6557238
4/31 Draper Street,Richmond,Christchurch City,8013,unit,2,1,,1,1,106,54,1975,390,22/09/2025,2,Iron Bridge Property Management - Christchurch,340000,210000,130000,1/08/2022,Multi-unit,Residential Medium Density,Inside,No appreciable view,Steel/G-Iron,Concrete,Residential-OYO-1970's-average,,,,No,-43.5232289,172.655651
2/36 COTTERILL STREET,ADDINGTON,CHRISTCHURCH,8024,Unit,2,1,,1,1,145,57,1980,390,2/05/2025,22,-,360000,143000,217000,1/08/2022,Single Unit excluding Bach,Residential Medium Density,Inside,No appreciable view,Steel/G-Iron,Concrete,Residential-OYO-1980's-poor,nill,,,NO,-43.5434033,172.6205156
8/246 STANMORE ROAD,RICHMOND,CHRISTCHURCH,8013,Unit,2,1,,1,1,,60,1975,390,18/03/2025,14,"Bright Realty & Property Management, (Licensed: Reaa 2008)",275000,75000,200000,1/08/2022,Single Unit excluding Bach,Residential Zone D,Inside,No appreciable view,Tile Profile,Concrete,Residential-OYO-1970's-average,partial,washing machine,,NO,-43.5224935,172.657155
3/158 STANMORE ROAD,LINWOOD,CHRISTCHURCH,8011,Unit,2,1,1,,1,,60,1975,390,12/05/2025,246,Diane Astle Realty Ltd Mreinz Licensed (Reaa 2008),350000,175000,175000,1/08/2022,Single Unit excluding Bach,Residential Medium Density,Inside,No appreciable view,Tile Profile,Concrete,Residential-OYO-1970's-average,nill,,,YES,-43.5272776,172.6574795
2/377 Cashel Street,Linwood,Christchurch City,8011,unit,2,1,,1,1,106,60,1975,390,11/09/2025,13,Garden City Property Management Ltd,300000,225581.3953,74418.60465,1/08/2022,Single Unit excluding Bach,Residential Medium Density,Inside,No appreciable view,Steel/G-Iron,Concrete,Residential-OYO-1970's-average,,,,No,-43.5325762,172.653667
3/3 BOON STREET,SYDENHAM,CHRISTCHURCH,8023,Unit,2,1,,1,1,,65,1985,390,26/08/2025,15,"Cowdy, (Licensed: Reaa 2008)",360000,210000,150000,1/08/2022,Single Unit excluding Bach,Residential Zone D,Inside,No appreciable view,Steel/G-Iron,Concrete,Residential-OYO-1980's-average,nill,,,NO,-43.5542576,172.633782
3/3 Boon Street,Sydenham,Christchurch City,8023,unit,2,1,1,1,1,140,65,1985,390,26/08/2025,29,"Cowdy, (Licensed: REAA 2008)",360000,210000,150000,1/08/2022,Single Unit excluding Bach,,Inside,No appreciable view,Steel/G-Iron,Concrete,Residential-OYO-1980's-average,,,,Yes,-43.5544019,172.6340515
2/355 WORCESTER STREET,LINWOOD,CHRISTCHURCH,8011,Unit,2,1,,1,1,,70,1970,390,4/06/2025,49,Rent Wise Property Management,365000,235000,130000,1/08/2022,Single Unit excluding Bach,Residential Zone D,Rear,No appreciable view,Steel/G-Iron,Concrete,Residential-OYO-1970's-average,nill,,,NO,-43.5306596,172.654524
2/605 HEREFORD STREET,LINWOOD,CHRISTCHURCH,8011,Unit,2,1,1,,1,,70,1975,390,11/08/2025,30,Iron Bridge Property Management - Christchurch,350000,160000,190000,1/08/2022,Single Unit excluding Bach,Central City Guest Accommodation,Inside,No appreciable view,Tile Profile,Concrete,Residential-OYO-1970's-average,nill,,,YES,-43.5318169,172.6688499
2/496 GLOUCESTER STREET,LINWOOD,CHRISTCHURCH,8011,Unit,2,1,1,1,1,,86,1960,390,19/04/2025,4,"Braziers Limited, (Licensed: Reaa 2008)",350000,245000,105000,1/08/2022,Single Unit excluding Bach,Residential Medium Density,Rear,No appreciable view,Steel/G-Iron,Concrete,Residential-OYO-1960's-average,partial,dining table;fridge;fridge/freezer,,YES,-43.5300807,172.660967
1/8 BURLINGTON STREET,SYDENHAM,CHRISTCHURCH,8023,,2,3,,,,632,,1910,390,5/06/2025,7,Central Property Management,620000,600000,20000,1/08/2022,Multi-unit,Residential Medium Density,Inside,No appreciable view,Steel/G-Iron,Weatherboard,Residential-Vacant Flat Land,nill,,,NO,-43.5500477,172.6407521
16/169 Fitzgerald Avenue,City Centre,Christchurch City,8011,apartment,1,1,1,1,1,64,40,1990,395,11/07/2025,75,Iron Bridge Property Management - Christchurch,260000,130000,130000,1/08/2022,Multi-unit,Central City Guest Accommodation,Inside,No appreciable view,Steel/G-Iron,Fibre Cement,Residential-OYO-1990's-average,partial,fridge;washing machine,,No,-43.5306908,172.649899
2/33 WAIPAPA AVENUE,DIAMOND HARBOUR,DIAMOND HARBOUR,8972,Unit,1,1,,,,,40,1975,395,11/08/2025,30,Bayleys Property Management Ltd,370000,255000,115000,1/08/2022,Single Unit excluding Bach,Residential Banks Peninsula,Inside,No appreciable view,Tile Profile,Fibre Cement,Residential-OYO-1970's-average,,,,NO,-43.6292077,172.7392193
24/169 Fitzgerald Avenue,City Centre,Christchurch City,8011,apartment,1,1,,1,1,64,41,1990,395,19/09/2025,5,"Holmwood Property Management - Sherborne, (Licensed: REAA 2008)",285000,140000,145000,1/08/2022,Multi-unit,Central City Guest Accommodation,Inside,No appreciable view,Steel/G-Iron,Fibre Cement,Residential-OYO-1990's-average,partial,fridge;fridge/freezer;microwave;washing machine,,No,-43.5306908,172.649899
2/20 Leyden Street,Phillipstown,Christchurch City,8011,unit,1,1,,1,1,77,46,2000,395,27/08/2025,28,Rent Wise Property Management,310000,155000,155000,1/08/2022,Single Unit excluding Bach,Residential Medium Density,Inside,No appreciable view,Steel/G-Iron,Mix.Material,Residential-OYO-2000/2009-average,,,,No,-43.539145,172.6578549
7/73 Clare Road,St. Albans,Christchurch City,8014,unit,1,1,1,1,1,100,50,1970,395,29/08/2025,26,Prestige Property Management Limited,320000,141000,179000,1/08/2022,Single Unit excluding Bach,Residential Medium Density,Rear,No appreciable view,Steel/G-Iron,Concrete,Residential-OYO-1970's-average,partial,washing machine,,Yes,-43.5180177,172.6312572
7/73 CLARE ROAD,ST ALBANS,CHRISTCHURCH,8014,,1,1,,1,1,71,50,2025,395,31/08/2025,10,Prestige Property Management Limited,320000,141000,179000,1/08/2022,Single Unit excluding Bach,Residential Medium Density,Rear,No appreciable view,Steel/G-Iron,Concrete,Residential-OYO-1970's-average,partial,washing machine,No,NO,-43.5179863,172.6312597
2/14 Sherborne Street,St. Albans,Christchurch City,8014,unit,1,1,1,2,1,100,78.93975904,1975,395,10/09/2025,14,Rent Wise Property Management,680000,402511.2108,277488.7892,1/08/2022,Multi-unit,Residential Medium Density,Inside,No appreciable view,Tile Profile,Concrete,Residential-Purpose built flat-1970's-average,,,Pets OK,Yes,-43.5200569,172.6386483
77 MERSEY STREET,ST ALBANS,CHRISTCHURCH,8014,Unit,1,1,,2,2,771,,1925,395,5/06/2025,2,"Cowdy, (Licensed: Reaa 2008)",900000,460000,440000,1/08/2022,Multi-unit,Residential Suburban,Inside,No appreciable view,Steel/G-Iron,Weatherboard,Residential-Converted Flat-1914/1929-average,partial,washing machine,,NO,-43.5054996,172.6366476
4/39 TOWER STREET,HORNBY,CHRISTCHURCH,8042,Unit,2,1,,1,1,,50,1970,395,23/01/2025,8,Harcourts Asset Managers,375000,219000,156000,1/08/2022,Single Unit excluding Bach,Central City Guest Accommodation,Rear,No appreciable view,Steel/G-Iron,Mix.Material,Residential-OYO-1970's-average,nill,,,NO,-43.5463426,172.5272445
5/46 LONGFELLOW STREET,SYDENHAM,CHRISTCHURCH,8023,Unit,2,1,,,,,50,1975,395,19/06/2025,2,"Irelands, (Licensed: Reaa 2008)",375000,225000,150000,1/08/2022,Single Unit excluding Bach,Residential Medium Density,Inside,No appreciable view,Steel/G-Iron,Concrete,Residential-OYO-1970's-average,nill,,Pets OK,NO,-43.5556761,172.6412265
3/81 SOUTHAMPTON STREET,SYDENHAM,CHRISTCHURCH,8023,Unit,2,1,,1,1,,60,1975,395,6/03/2025,7,Harcourts Asset Managers,375000,260000,115000,1/08/2022,Single Unit excluding Bach,Residential Medium Density,Inside,No appreciable view,Tile Profile,Concrete,Residential-OYO-1970's-average,nill,,,NO,-43.5539168,172.6413476
2/452 BARBADOES STREET,EDGEWARE,CHRISTCHURCH,8013,Unit,2,1,,1,1,,62,1965,395,29/05/2025,239,Cowdy,315000,260000,55000,1/08/2022,Single Unit excluding Bach,Residential Medium Density,Inside,No appreciable view,Steel/G-Iron,Concrete,Residential-OYO-1960's-average,nill,,,NO,-43.5192466,172.6462645
483 HEREFORD STREET,LINWOOD,CHRISTCHURCH,8011,Unit,2,1,,2,6,98,73,1975,395,2/06/2025,7,Bespoke Property Management Ltd,540000,201869.1589,338130.8411,1/08/2022,Multi-unit,Residential Medium Density,Inside,No appreciable view,Steel/G-Iron,Concrete,Residential-Purpose built flat-1970's-average,nill,,,NO,-43.5317538,172.6604072
57 VOGEL STREET,RICHMOND,CHRISTCHURCH,8013,House,2,1,,1,1,625,74,1930,395,10/06/2025,6,Metro Advances Limited,490000,485000,5000,1/08/2022,Single Unit excluding Bach,Residential Medium Density,Corner,No appreciable view,Steel/G-Iron,Weatherboard,Residential-Dwelling-1930's-average,,,,NO,-43.5208441,172.6590177
1/14 SEDDON STREET,SYDENHAM,CHRISTCHURCH,8023,Unit,2,1,,1,1,106,74.5,1970,395,10/02/2025,43,Iron Bridge Chch 01,545000,327000,218000,1/08/2022,Single Unit excluding Bach,Residential Suburban Density Transition,Inside,No appreciable view,Steel/G-Iron,Concrete,Residential-OYO-1970's-average,nill,,,NO,-43.5571893,172.6424566
1/443 HILLS ROAD,MAIREHAU,CHRISTCHURCH,8052,Unit,2,1,1,,1,,90,1965,395,11/03/2025,15,Whittle Knight Real Estate Agents,455000,270000,185000,1/08/2022,Single Unit excluding Bach,Residential Suburban,Inside,No appreciable view,Steel/G-Iron,Concrete,Residential-OYO-1960's-average,,,,YES,-43.4905158,172.6485259
3/45 GERALDINE STREET,EDGEWARE,CHRISTCHURCH,8013,Unit,2,1,,1,1,498,,1970,395,10/03/2025,169,Holmwood Property Management,1150000,550000,160000,1/08/2022,Single Unit excluding Bach,Residential Suburban Density Transition,Inside,No appreciable view,Steel/G-Iron,Weatherboard,Residential-Dwelling-1914/1929-average,nill,,Pets OK,NO,-43.5184332,172.6471729
99 EDGEWARE ROAD,ST ALBANS,CHRISTCHURCH,8014,Unit,2,1,1,,1,574,,1940,395,7/06/2025,3,"Braziers Limited, (Licensed: Reaa 2008)",1050000,600000,450000,1/08/2022,Multi-unit,Residential Zone D,Inside,No appreciable view,Steel/G-Iron,Mix.Material,Residential-Purpose built flat-1940's-average,partial,fridge;fridge/freezer,,YES,-43.5132865,172.6393323
4/411 HEREFORD STREET,LINWOOD,CHRISTCHURCH,8011,Unit,2,1,,,,1012,,1955,395,15/07/2025,7,Myrent.Co.NZ Ltd,1050000,770000,280000,1/08/2022,Multi-unit,Residential Zone D,Inside,No appreciable view,Tile Profile,Brick,Residential-Purpose built flat-1950's-average,nill,,Pets OK,NO,-43.5317043,172.6557481
379 CASHEL STREET,LINWOOD,CHRISTCHURCH,8011,,2,1,1,,1,556,150,1905,395,16/06/2025,27,Garden City Property Management Ltd,570000,485000,85000,1/08/2022,Multi-unit,Residential Medium Density,Inside,No appreciable view,Steel/G-Iron,"Roughcast,etc",Residential-Converted Flat-pre 1914-average,nill,,,YES,-43.5328758,172.6534506
4/484 Worcester Street,Linwood,Christchurch City,8011,House,2,1,1,,1,128,55,1965,399,28/07/2025,58,"Braziers Limited, (Licensed: REAA 2008)",490000,160000,330000,1/08/2022,Single Unit excluding Bach,Central City Guest Accommodation,Rear,No appreciable view,Steel/G-Iron,Weatherboard,Residential-OYO-2020/2029-average,,,,Yes,-43.5313358,172.6632788
4-28 Draper Street,Richmond,Christchurch City,,unit,2,1,1,1,1,140,60,,399,6/08/2025,49,"Braziers Limited, (Licensed: REAA 2008)",290000,180273.353,109726.647,1/08/2022,Single Unit excluding Bach,Residential Suburban Density Transition,Inside,No appreciable view,Tile Profile,Brick,Residential-OYO-1960's-average,partial,washing machine,,Yes,-43.5240431,172.6558761
484 WORCESTER STREET,LINWOOD,CHRISTCHURCH,8011,Unit,2,1,,4,4,98,73,1965,399,26/08/2025,45,"Braziers Limited, (Licensed: Reaa 2008)",540000,201869.1589,338130.8411,1/08/2022,Multi-unit,Residential Medium Density,Inside,No appreciable view,Steel/G-Iron,Brick,Residential-Purpose built flat-1960's-average,nill,,No,NO,-43.5312631,172.6632864
4/17 BRAKE STREET,UPPER RICCARTON,CHRISTCHURCH,8041,Unit,1,1,,,,,30,1975,400,20/08/2025,97,Superior Property Management Limited,285000,143000,142000,1/08/2022,Single Unit excluding Bach,Central City Guest Accommodation,Inside,No appreciable view,Steel/G-Iron,Concrete,Residential-OYO-1970's-average,Fully Furnished,,,NO,-43.5301992,172.5711478
2/481 BARBADOES STREET,EDGEWARE,CHRISTCHURCH,8013,Unit,1,1,,,,,40,1970,400,26/05/2025,7,Prestige Property Management Ltd,255000,170000,85000,1/08/2022,Single Unit excluding Bach,Residential Medium Density,Inside,No appreciable view,Steel/G-Iron,"Roughcast,etc",Residential-OYO-1970's-average,partial,washing machine,,NO,-43.5176681,172.6456439
2/120 OSBORNE STREET,WALTHAM,CHRISTCHURCH,8011,,1,1,,1,1,,40,1990,400,4/09/2025,7,"Cowdy, (Licensed: Reaa 2008)",360000,185000,175000,1/08/2022,Single Unit excluding Bach,Residential Suburban Density Transition,Inside,No appreciable view,Steel/G-Iron,Steel/G-Iron,Residential-Dwelling-1990's-poor,partial,washing machine,,NO,-43.5422435,172.662304
2/120 Osborne Street,Waltham,Christchurch City,8011,unit,1,1,,1,1,77,40,1990,400,4/09/2025,20,"Cowdy, (Licensed: REAA 2008)",360000,185000,175000,1/08/2022,Single Unit excluding Bach,Residential Suburban Density Transition,Inside,No appreciable view,Steel/G-Iron,Steel/G-Iron,Residential-Dwelling-1990's-poor,partial,washing machine,,No,-43.5421532,172.6621076
2/14 Dublin St,City Centre,Christchurch City,8013,apartment,1,1,1,1,1,100,41,1990,400,21/08/2025,34,Bayleys Property Management Ltd,420000,180000,240000,1/08/2022,Single Unit excluding Bach,Central City Guest Accommodation,Inside,No appreciable view,Steel/G-Iron,Concrete,Residential-OYO-1990's-average,,,,Yes,-43.5218237,172.6278554
2/11 PARLANE STREET,ADDINGTON,CHRISTCHURCH,8024,Apartment,1,1,,3,1,,50,2019,400,29/01/2025,7,-,530000,160000,370000,1/08/2022,Single Unit excluding Bach,Residential Zone D,Inside,No appreciable view,Steel/G-Iron,Mix.Material,Residential-Apartment-2010/2019-average,nill,,,NO,-43.5437582,172.612845
4/24 GORDON AVENUE,ST ALBANS,CHRISTCHURCH,8014,Unit,1,1,1,,1,,50,1960,400,14/05/2025,12,-,450000,220000,230000,1/08/2022,Multi-unit,Residential Suburban Density Transition,Rear,No appreciable view,Tile Profile,Concrete,Residential-OYO-1960's-poor,Fully Furnished,,,YES,-43.5123389,172.627994
6/88 BISHOP STREET,ST ALBANS,CHRISTCHURCH,8014,Unit,1,1,,1,1,,50,1985,400,18/07/2025,7,"The Hancock Group, (Licensed: Reaa 2008)",440000,245000,195000,1/08/2022,Single Unit excluding Bach,Residential Medium Density,Inside,No appreciable view,Steel/G-Iron,Brick,Residential-OYO-1980's-average,nill,,,NO,-43.516348,172.641859
1/71 RANFURLY STREET,ST ALBANS,CHRISTCHURCH,8014,,1,1,1,,1,,50,1970,400,16/08/2025,7,-,,,0,1/08/2022,Multi-unit,Residential Zone B,,No appreciable view,Fibre Cement,Mix.Material,Residential-Purpose built flat-1960's-average,nill,,,YES,-43.5146201,172.6320804
141a Fitzgerald Avenue,City Centre,Christchurch City,8011,apartment,1,1,,1,1,71,52,2024,400,,,Opes Property Management South Limited,510000,240000,270000,1/08/2022,Multi-use within Residential,Commercial Central City Mixed Use,Inside,No appreciable view,Steel/G-Iron,Mix.Material,Residential-Multiple Dwellings-2020/2029-average,partial,dining table;dryer;fridge;fridge/freezer;washing machine,Pets OK,No,-43.539773,172.650671
8/468 CASHEL STREET,LINWOOD,CHRISTCHURCH,8011,Apartment,1,1,,,,75,53,2025,400,16/01/2025,7,Iron Bridge Property Management - Christchurch,320000,140000,180000,1/08/2022,Single Unit excluding Bach,Residential Medium Density,Corner,No appreciable view,Steel/G-Iron,Concrete,Residential-Apartment-2010/2019-average,nill,,,NO,-43.5331924,172.6584566
16/468 CASHEL STREET,LINWOOD,CHRISTCHURCH,8011,Apartment,1,1,,,,75,53,2025,400,15/04/2025,36,Iron Bridge Chch 01,320000,140000,180000,1/08/2022,Single Unit excluding Bach,Residential Medium Density,Corner,No appreciable view,Steel/G-Iron,Concrete,Residential-Apartment-2010/2019-average,nill,,,NO,-43.5331924,172.6584566
M3/219 Johns Road,Northwood,Christchurch City,,unit,1,1,,,,77,56,,400,8/07/2025,78,Inspire Property Management,630000,351191.4894,278808.5106,1/08/2022,Public Communal - Unlicenced,Rural Urban Fringe,,,Tile Profile,Concrete,Commercial-Accom-Suburban-average,,,,No,-43.4547183,172.6055238
M6/219 Johns Road,Northwood,Christchurch City,,unit,1,1,,,,77,56,,400,8/07/2025,78,Inspire Property Management,630000,351191.4894,278808.5106,1/08/2022,Public Communal - Unlicenced,Rural Urban Fringe,,,Tile Profile,Concrete,Commercial-Accom-Suburban-average,,,,No,-43.4547183,172.6055238
120/541D Innes Road,Mairehau,Christchurch City,,apartment,1,1,,1,1,77,56,,400,5/08/2025,50,Superior Property Management Limited,590000,256521.7391,333478.2609,1/08/2022,Special Accomodation,Residential Suburban,,,Tile Profile,Brick,Commercial-Accom-Suburban-average,,,,No,-43.4915692,172.6536751
4/17 Brake Street,Upper Riccarton,Christchurch City,8041,unit,1,1,,1,,77,56,1975,400,20/08/2025,35,Superior Property Management Limited,285000,143000,142000,1/08/2022,Single Unit excluding Bach,Central City Guest Accommodation,Inside,No appreciable view,Steel/G-Iron,Concrete,Residential-OYO-1970's-average,Fully Furnished,,,No,-43.5301332,172.5709406
12 Leverett Place,North New Brighton,Christchurch City,8083,unit,1,1,,1,1,77,56,1960,400,30/08/2025,25,,600000,270000,330000,1/08/2022,Single Unit excluding Bach,Residential Suburban,Rear,No appreciable view,Tile Profile,Concrete,Residential-Dwelling-1960's-average,partial,fridge;washing machine,,No,-43.4957069,172.7162154
84B Dyers Pass Road,Cashmere,Christchurch City,8022,apartment,1,1,,1,1,77,56,1910,400,9/09/2025,15,myRent.co.nz Ltd,590000,254310.3448,335689.6552,1/08/2022,Single Unit excluding Bach,Residential Hills,Rear,Focal Point Of view - Other,Steel/G-Iron,"Roughcast,etc",Residential-Dwelling-1914/1929-average,nill,unfurnished,,No,-43.5755174,172.6290453
7/347 Armagh Street,Linwood,Christchurch City,8011,townhouse,1,1,,1,1,77,56,2000,400,22/09/2025,2,Grenadier Rent Shop Ltd,400000,175000,225000,1/08/2022,Single Unit excluding Bach,Residential Medium Density,Rear,No appreciable view,Steel/G-Iron,Concrete,Residential-OYO-2000/2009-average,partial,fridge;microwave;washing machine,Pets OK,No,-43.5283189,172.652336
1/308 Hereford Street,City Centre,Christchurch City,8011,unit,1,1,,1,1,77,62,2015,400,19/08/2025,36,"Whittle Knight Real Estate Ltd, (Licensed: REAA 2008)",480000,225000,255000,1/08/2022,Single Unit excluding Bach,Commercial Central City Mixed Use,Inside,No appreciable view,Steel/G-Iron,Fibre Cement,Residential-OYO-2010/2019-average,,,,No,-43.5324744,172.6485736
12 WHERSTEAD ROAD,CASHMERE,CHRISTCHURCH,8022,Unit,1,1,,2,2,696,,1920,400,17/05/2025,7,"Cowdy, (Licensed: Reaa 2008)",710000,495000,215000,1/08/2022,Multi-unit,Residential Suburban,Inside,No appreciable view,Steel/G-Iron,Weatherboard,Residential-Converted Flat-1914/1929-average,nill,,,NO,-43.56501,172.6349933
9/57 CHARLES STREET,WALTHAM,CHRISTCHURCH,8011,Apartment,2,1,,1,1,,59,2000,400,10/02/2025,11,Najib Property Management,440000,130000,310000,1/08/2022,Single Unit excluding Bach,Residential Medium Density,Rear,No appreciable view,Steel/G-Iron,Concrete,Residential-Apartment-2000/2009-average,partial,dryer;fridge;fridge/freezer;microwave,,NO,-43.5433716,172.6597533
3/23 OXLEY AVENUE,ST ALBANS,CHRISTCHURCH,8014,Unit,2,1,1,,1,,60,1970,400,23/01/2025,70,-,350000,160000,190000,1/08/2022,Single Unit excluding Bach,Residential Suburban Density Transition,Rear,No appreciable view,Steel/G-Iron,Concrete,Residential-OYO-1970's-average,nill,,,YES,-43.5089828,172.6399546
1/54 COLLINGWOOD STREET,NEW BRIGHTON,CHRISTCHURCH,8061,Unit,2,1,,1,1,,60,1975,400,8/06/2025,7,-,385000,215000,170000,1/08/2022,Single Unit excluding Bach,Residential Suburban Density Transition,Inside,No appreciable view,Steel/G-Iron,Concrete,Residential-OYO-1970's-average,nill,,,NO,-43.5099571,172.7257313
5/29 DRAPER STREET,RICHMOND,CHRISTCHURCH,8013,Unit,2,1,,1,1,,60,1975,400,19/06/2025,2,Harcourts Gold Property Management,300000,170000,130000,1/08/2022,Single Unit excluding Bach,Residential Medium Density,Inside,No appreciable view,Steel/G-Iron,Concrete,Residential-OYO-1970's-average,nill,,,NO,-43.523348,172.6554473
1/34 WHITMORE STREET,EDGEWARE,CHRISTCHURCH,8013,Unit,2,1,,,,,60,1945,400,31/08/2025,325,Grenadier Rent Shop Limited,325000,185000,140000,1/08/2022,Single Unit excluding Bach,Residential Medium Density,Inside,No appreciable view,Fibre Cement,Fibre Cement,Residential-OYO-1940's-average,,,,NO,-43.5192306,172.6509034
5/21 OLLIVIERS ROAD,PHILLIPSTOWN,CHRISTCHURCH,8011,Unit,2,1,1,,1,,61,1975,400,18/02/2025,29,Grenadier Rent Shop Limited,345000,110000,235000,1/08/2022,Single Unit excluding Bach,Residential Medium Density,Inside,No appreciable view,Steel/G-Iron,Mix.Material,Residential-OYO-1970's-average,nill,,,YES,-43.5395,172.66017
4/21 OLLIVIERS ROAD,PHILLIPSTOWN,CHRISTCHURCH,8011,Unit,2,1,1,,1,,61,1975,400,19/05/2025,21,Grenadier Rent Shop Ltd,365000,110000,255000,1/08/2022,Single Unit excluding Bach,Residential Medium Density,Inside,No appreciable view,Steel/G-Iron,Mix.Material,Residential-OYO-1970's-average,nill,,No,YES,-43.539489,172.660241
2/74 BRYNLEY STREET,HORNBY,CHRISTCHURCH,8042,Unit,2,1,,1,1,,63,1975,400,14/07/2025,225,Irelands,410000,255000,155000,1/08/2022,Single Unit excluding Bach,Central City Guest Accommodation,Inside,No appreciable view,Tile Profile,Concrete,Residential-OYO-1970's-average,partial,washing machine,,NO,-43.5486255,172.5331601
2/27 ANDOVER STREET,MERIVALE,CHRISTCHURCH,8014,Unit,2,1,,1,1,,64,1973,400,3/04/2025,44,Grenadier Rent Shop Limited,550000,275000,275000,1/08/2022,Single Unit excluding Bach,Residential Medium Density,Inside,No appreciable view,Steel/G-Iron,Concrete,Residential-OYO-1970's-average,nill,,No,NO,-43.5199575,172.6213102
1/556 WORCESTER STREET,LINWOOD,CHRISTCHURCH,8011,Unit,2,1,1,,1,,70,1975,400,4/04/2025,7,-,375000,230000,145000,1/08/2022,Single Unit excluding Bach,Central City Guest Accommodation,Inside,No appreciable view,Tile Profile,Concrete,Residential-OYO-1970's-average,,,,YES,-43.531122,172.6678587
2/72 VOGEL STREET,RICHMOND,CHRISTCHURCH,8013,Unit,2,1,,1,1,,70,1975,400,19/04/2025,7,-,320000,175000,145000,1/08/2022,Single Unit excluding Bach,Residential Medium Density,Inside,No appreciable view,Steel/G-Iron,Brick,Residential-OYO-1970's-average,nill,,,NO,-43.5202298,172.6596078
11 REDBRIDGE LANE,SYDENHAM,CHRISTCHURCH,8023,Unit,2,1,,1,1,,70,1975,400,29/05/2025,3,Holmwood Property Management,410000,260000,150000,1/08/2022,Single Unit excluding Bach,Residential Medium Density,Inside,No appreciable view,Tile Profile,Brick,Residential-OYO-1970's-average,nill,,,NO,-43.5571603,172.6442636
3/402 HEREFORD STREET,LINWOOD,CHRISTCHURCH,8011,Unit,2,1,1,,1,,70,1975,400,2/06/2025,7,Harcourts Accommodation Centre,370000,220000,150000,1/08/2022,Single Unit excluding Bach,Residential Zone D,Inside,No appreciable view,Tile Profile,Concrete,Residential-OYO-1970's-average,nill,,,YES,-43.5324001,172.6549436
2/12 MCFADDENS ROAD,ST ALBANS,CHRISTCHURCH,8052,Unit,2,1,,,,,70,1965,400,25/06/2025,28,Wolfbrook Property Management,560000,355000,205000,1/08/2022,Single Unit excluding Bach,Residential Suburban,Inside,No appreciable view,Steel/G-Iron,Concrete,Residential-OYO-1960's-average,nill,,,NO,-43.5019725,172.6256041
2/350 Worcester Street,Linwood,Christchurch City,8011,unit,2,1,1,,1,140,70,1975,400,9/09/2025,15,Trust Property Group,355000,190000,165000,1/08/2022,Single Unit excluding Bach,,Inside,No appreciable view,Tile Profile,Concrete,Residential-OYO-1970's-average,,,Pets OK,Yes,-43.5312255,172.6546999
2/69 Champion Street,St. Albans,Christchurch City,8013,unit,2,1,,1,1,96,70,1975,400,10/09/2025,14,,375000,250000,125000,1/08/2022,Single Unit excluding Bach,Residential Medium Density,Rear,No appreciable view,Tile Profile,Concrete,Residential-OYO-1970's-average,partial,fridge;fridge/freezer;washing machine,,No,-43.517479,172.6488484
3/101 Nursery Road,Phillipstown,Christchurch City,8011,unit,2,1,,1,2,106,72,2025,400,19/08/2025,36,Metro Advances Limited,540000,200000,340000,1/08/2022,Multi-unit,Residential Medium Density,Inside,No appreciable view,Steel/G-Iron,Mix.Material,Residential-Purpose built flat-1970's-average,nill,unfurnished,,No,-43.5345989,172.6579514
13A BURNS STREET,SYDENHAM,CHRISTCHURCH,8023,Unit,2,1,,2,2,,73,1990,400,17/06/2025,30,Garden City Property Management Ltd,425000,134000,291000,1/08/2022,Multi-unit,Residential Medium Density,Rear,No appreciable view,Steel/G-Iron,Fibre Cement,Residential-OYO-1990's-average,nill,,,NO,-43.5494495,172.628872
8/57 CHARLES STREET,WALTHAM,CHRISTCHURCH,8011,Apartment,2,1,,1,1,,73,2000,400,28/08/2025,27,Prestige Property Management Limited,450000,130000,320000,1/08/2022,Single Unit excluding Bach,Residential Medium Density,Rear,No appreciable view,Steel/G-Iron,Concrete,Residential-Apartment-2000/2009-average,nill,,No,NO,-43.5435335,172.6594509
50A CHAMPION STREET,EDGEWARE,CHRISTCHURCH,8013,Unit,2,1,5,,5,102,74.5,1980,400,8/07/2025,68,Bayleys Property Management Ltd,560000,239223.301,320776.699,1/08/2022,Multi-unit,Residential Medium Density,,No appreciable view,Steel/G-Iron,Concrete,Residential-Purpose built flat-1980's-average,nill,,No,YES,-43.5184621,172.6500698
3/26 STONEYHURST STREET,ST ALBANS,CHRISTCHURCH,8014,Unit,2,1,,8,6,101,76,1970,400,11/07/2025,52,Rent Wise Property Management,630000,310873.3624,319126.6376,1/08/2022,Multi-unit,Residential Medium Density,Inside,No appreciable view,Steel/G-Iron,Concrete,Residential-Purpose built flat-1970's-average,nill,,,NO,-43.5194651,172.6303778
4/14 Rhodes Street,Merivale,Christchurch City,,apartment,2,1,,16,2,89,77,2025,400,12/09/2025,12,,760000,603529.4118,156470.5882,1/08/2022,Multi-unit,Residential Medium Density,Inside,No appreciable view,Concrete,Concrete,Residential-Apartment-1970's-poor,,,,No,-43.5218214,172.6192901
3/324 FERRY ROAD,WALTHAM,CHRISTCHURCH,8011,Unit,2,1,,1,1,,80,1975,400,27/01/2025,113,Grenadier Rent Shop Limited,355000,145000,210000,1/08/2022,Single Unit excluding Bach,Residential Suburban Density Transition,Inside,No appreciable view,Steel/G-Iron,Concrete,Residential-OYO-1970's-average,nill,,,NO,-43.5422133,172.6632203
2/7 ANGELA STREET,UPPER RICCARTON,CHRISTCHURCH,8041,Unit,2,1,,1,1,,80,1965,400,4/02/2025,12,Bayleys Property Management Ltd,455000,225000,230000,1/08/2022,Single Unit excluding Bach,Residential Suburban Density Transition,Inside,No appreciable view,Steel/G-Iron,Concrete,Residential-OYO-1960's-average,nill,,No,NO,-43.5306288,172.5694177
1/151A YALDHURST ROAD,SOCKBURN,CHRISTCHURCH,8042,Unit,2,1,,2,6,98,80,1975,400,1/09/2025,9,"Whittle Knight Real Estate Ltd, (Licensed: Reaa 2008)",465000,243068.1818,221931.8182,1/08/2022,Multi-unit,Residential Suburban,Inside,No appreciable view,Steel/G-Iron,Concrete,Residential-Purpose built flat-1970's-average,nill,,No,NO,-43.527606,172.554441
2/9 Rodney Street,New Brighton,Christchurch City,8061,unit,2,1,1,2,2,140,90,1975,400,9/09/2025,15,"Ray White New Brighton (Results Realty Ltd), (Licensed: REAA 2008)",468750,293534.2054,175215.7946,1/08/2022,Multi-unit,Residential Medium Density,Inside,No appreciable view,Steel/G-Iron,Concrete,Residential-Purpose built flat-1970's-average,,,,Yes,-43.513496,172.7326035
2/151a Yaldhurst Rd,Upper Riccarton,Christchurch City,,apartment,2,1,,2,2,89,95,,400,1/09/2025,23,"Whittle Knight Real Estate Ltd, (Licensed: REAA 2008)",640000,384000,256000,1/08/2022,Single Unit excluding Bach,Residential Suburban,Rear,No appreciable view,Tile Profile,Brick,Residential-Dwelling-1950's-average,,,,No,-43.527583,172.554364
3/31 Bishop Street,St. Albans,Christchurch City,8013,Unit,2,1,1,,2,166,96,2019,400,18/09/2025,6,Harcourts Gold Property Management,530000,205000,325000,1/08/2022,Single Unit excluding Bach,Medium Density Residential Zone,Inside,No appreciable view,Steel/G-Iron,"Roughcast,etc",Residential-Dwelling-2010/2019-average,partial,partly furnished,,No,-43.5191477,172.6407589
2/113 RUSKIN STREET,ADDINGTON,CHRISTCHURCH,8024,Unit,2,2,,,,,120,1925,400,6/08/2025,2,Harcourts Asset Managers,475000,290000,185000,1/08/2022,Multi-unit,Residential Medium Density,Inside,No appreciable view,Steel/G-Iron,Weatherboard,Residential-Converted Flat-1914/1929-average,nill,,,NO,-43.5461121,172.6293108
1041 COLOMBO STREET,ST ALBANS,CHRISTCHURCH,8014,Unit,2,2,,2,2,508,,1975,400,4/07/2025,7,Bayleys Property Management Ltd,680000,610000,70000,1/08/2022,Multi-unit,Residential Zone D,Inside,No appreciable view,Steel/G-Iron,Concrete,Residential-Purpose built flat-1970's-average,nill,,Pets OK,NO,-43.5147588,172.636405
2/60 Somerset Crescent,Spreydon,Christchurch City,8024,house,2,1,1,1,1,838.95,90,1990,405,10/09/2025,14,A1 Property Managers Ltd,380000,275000,105000,1/08/2022,Single Unit excluding Bach,Residential Medium Density,Inside,No appreciable view,Steel/G-Iron,"Roughcast,etc",Residential-OYO-1990's-average,,,,Yes,-43.5480486,172.6227329
28 Elm Grove,Linwood,Christchurch City,8011,House,2,1,,1,,440,,,405,18/08/2025,37,The Property Boss Limited,370000,370000,0,1/08/2022,Vacant Residential,Residential Medium Density,Rear,No appreciable view,,,Residential-Vacant Site,,,,No,-43.5278855,172.6521651
6/481 BARBADOES STREET,EDGEWARE,CHRISTCHURCH,8013,Unit,1,1,,,,,40,1970,410,6/05/2025,8,Prestige Property Management Ltd,265000,180000,85000,1/08/2022,Single Unit excluding Bach,Residential Medium Density,Inside,No appreciable view,Steel/G-Iron,"Roughcast,etc",Residential-OYO-1970's-average,partial,washing machine,,NO,-43.5176907,172.645581
4/169 Fitzgerald Avenue,City Centre,Christchurch City,8011,apartment,1,1,1,,1,64,40,1990,410,5/08/2025,50,"Irelands, (Licensed: REAA 2008)",255000,125000,130000,1/08/2022,Multi-unit,Central City Guest Accommodation,Inside,No appreciable view,Steel/G-Iron,Fibre Cement,Residential-OYO-1990's-average,partial,fridge;microwave;washing machine,,No,-43.5306908,172.649899
18/169 Fitzgerald Avenue,City Centre,Christchurch City,8011,apartment,1,1,,1,1,64,41,1990,410,19/09/2025,5,"Irelands, (Licensed: REAA 2008)",275000,140000,135000,1/08/2022,Multi-unit,Central City Guest Accommodation,Inside,No appreciable view,Steel/G-Iron,Fibre Cement,Residential-OYO-1990's-average,partial,partially furnished,,No,-43.5306908,172.649899
11/20 STANMORE ROAD,PHILLIPSTOWN,CHRISTCHURCH,8011,Apartment,1,1,,1,1,,45,2010,410,19/07/2025,10,-,310000,130000,180000,1/08/2022,Single Unit excluding Bach,Residential Medium Density,,No appreciable view,Steel/G-Iron,Mix.Material,Residential-Apartment-2010/2019-average,nill,unfurnished,,NO,-43.5305315,172.6570739
4/35 BUFFON STREET,WALTHAM,CHRISTCHURCH,8023,Townhouse,1,1,,1,1,50,51,2022,410,10/07/2025,16,Metro Advances Limited,470000,130000,340000,1/08/2022,Single Unit excluding Bach,Residential Medium Density,Rear,No appreciable view,Steel/G-Iron,Mix.Material,Residential-OYO-2020/2029-average,nill,unfurnished,No,NO,-43.5499887,172.6509437
3/265 Armagh Street,City Centre,Christchurch City,8011,apartment,1,1,,1,1,64,52,2005,410,,,Proactive Property Management,510000,237326.7327,272673.2673,1/08/2022,Multi-unit,Central City Guest Accommodation,Inside,No appreciable view,Mix.Material,Mix.Material,Residential-Purpose built flat-Mixed Age-average,Fully Furnished,,Pets OK,No,-43.5285064,172.6467327
8/31 Holly Road,Merivale,Christchurch City,8014,apartment,1,1,10,,1,77,56,2025,410,10/09/2025,14,Proactive Property Management,590000,256521.7391,333478.2609,1/08/2022,Multi-unit,Residential Suburban Density Transition,Inside,No appreciable view,Tile Profile,Concrete,Residential-Purpose built flat-1970's-average,Fully Furnished,,,No,-43.5157505,172.6267285
4/36 EDWARD AVENUE,EDGEWARE,CHRISTCHURCH,8013,Unit,2,1,1,,1,,60,1970,410,20/01/2025,7,"Braziers Limited, (Licensed: Reaa 2008)",250000,170000,80000,1/08/2022,Single Unit excluding Bach,Residential Suburban Density Transition,Rear,No appreciable view,Steel/G-Iron,Concrete,Residential-OYO-1970's-poor,nill,,,YES,-43.51144,172.645401
1/422 ARMAGH STREET,LINWOOD,CHRISTCHURCH,8011,Unit,2,1,1,,1,,60,1975,410,10/02/2025,7,"Cowdy, (Licensed: Reaa 2008)",355000,205000,150000,1/08/2022,Single Unit excluding Bach,Residential Medium Density,Inside,No appreciable view,Tile Profile,Concrete,Residential-OYO-1970's-average,partial,dryer;washing machine,,YES,-43.5289027,172.6546623
1/23 OXLEY AVENUE,ST ALBANS,CHRISTCHURCH,8014,Unit,2,1,1,,1,,60,1970,410,13/02/2025,15,Rentworks Property Management Ltd,365000,160000,205000,1/08/2022,Single Unit excluding Bach,Residential Suburban Density Transition,Inside,No appreciable view,Steel/G-Iron,Concrete,Residential-OYO-1970's-average,nill,,,YES,-43.5091444,172.6399917
2/124 ALDWINS ROAD,PHILLIPSTOWN,CHRISTCHURCH,8062,Unit,2,1,,1,1,,61,1975,410,18/06/2025,10,"Irelands, (Licensed: Reaa 2008)",350000,200000,150000,1/08/2022,Single Unit excluding Bach,Central City Guest Accommodation,Rear,No appreciable view,Steel/G-Iron,Concrete,Residential-OYO-1970's-average,nill,,,NO,-43.536036,172.6708492
3/452 Barbadoes Street,Edgeware,Christchurch City,8013,unit,2,1,,1,1,106,62,1965,410,,,"Cowdy, (Licensed: REAA 2008)",315000,138813.5593,176186.4407,1/08/2022,Single Unit excluding Bach,Residential Medium Density,Inside,No appreciable view,Steel/G-Iron,Concrete,Residential-OYO-1960's-average,,,,No,-43.5192291,172.6465605
1/401 CASHEL STREET,LINWOOD,CHRISTCHURCH,8011,Unit,2,1,1,,1,,70,1955,410,29/05/2025,30,"Irelands, (Licensed: Reaa 2008)",380000,265000,115000,1/08/2022,Single Unit excluding Bach,Residential Medium Density,Inside,No appreciable view,Tile Profile,Brick,Residential-OYO-1950's-average,partial,dining table,,YES,-43.5329173,172.6547667
2/460 GLOUCESTER STREET,LINWOOD,CHRISTCHURCH,8011,Unit,2,1,,,,,70,1965,410,11/06/2025,7,Myrent.Co.NZ Ltd,395000,245000,150000,1/08/2022,Single Unit excluding Bach,Residential Zone D,Inside,No appreciable view,Steel/G-Iron,Concrete,Residential-OYO-1960's-average,nill,,,NO,-43.5300628,172.6587434
3/541 WORCESTER STREET,LINWOOD,CHRISTCHURCH,8011,Unit,2,1,,1,1,,71,1975,410,9/05/2025,7,The Good Girls Property Management Ltd,400000,205000,195000,1/08/2022,Single Unit excluding Bach,Central City Guest Accommodation,Inside,No appreciable view,Tile Profile,Concrete,Residential-OYO-1970's-average,nill,,,NO,-43.5305377,172.6666871
385 WORCESTER STREET,LINWOOD,CHRISTCHURCH,8011,Unit,2,1,,4,4,98,73,1915,410,3/05/2025,7,-,540000,201869.1589,338130.8411,1/08/2022,Multi-unit,Residential Zone D,Inside,No appreciable view,Steel/G-Iron,Mix.Material,Residential-Purpose built flat-Mixed Age-average,nill,,,NO,-43.5307715,172.6562562
2/8 Stanmore Road,Linwood,Christchurch City,8011,unit,2,1,,2,2,106,73,2025,410,2/09/2025,22,"Holmwood Property Management - Sherborne, (Licensed: REAA 2008)",560000,420000,140000,1/08/2022,Multi-unit,Residential Medium Density,Inside,No appreciable view,Tile Profile,Concrete,Residential-Purpose built flat-1970's-average,,,,No,-43.5321487,172.6565707
196 LINCOLN ROAD,ADDINGTON,CHRISTCHURCH,8024,Unit,2,1,80,6,6,85,75,1970,410,12/08/2025,43,Garden City Property Management Ltd,610000,167258.0645,442741.9355,1/08/2022,Multi-unit,Residential Medium Density,Inside,No appreciable view,Tile Profile,Concrete,Residential-Purpose built flat-1970's-average,nill,,,YES,-43.5473358,172.6066699
1/932 COLOMBO STREET,ST ALBANS,CHRISTCHURCH,8014,Unit,2,1,,2,3,101,76,1965,410,7/03/2025,29,Holmwood Property Management,630000,310873.3624,319126.6376,1/08/2022,Multi-unit,Residential Medium Density,Inside,No appreciable view,Steel/G-Iron,Concrete,Residential-Purpose built flat-1960's-average,nill,,,NO,-43.5201187,172.636887
31 HOLLY ROAD,ST ALBANS,CHRISTCHURCH,8014,Unit,2,1,10,,6,101,76,1970,410,2/08/2025,2,Proactive Property Management,630000,310873.3624,319126.6376,1/08/2022,Multi-unit,Residential Suburban Density Transition,Inside,No appreciable view,Tile Profile,Concrete,Residential-Purpose built flat-1970's-average,Fully Furnished,,,YES,-43.5157505,172.6267285
6/73 MATHESONS ROAD,PHILLIPSTOWN,CHRISTCHURCH,8011,Unit,2,1,1,,1,,80,1975,410,16/01/2025,7,Myrent.Co.NZ Ltd,345000,175000,170000,1/08/2022,Single Unit excluding Bach,Residential Medium Density,Inside,No appreciable view,Tile Profile,Mix.Material,Residential-OYO-1970's-average,nill,,,YES,-43.536818,172.6602701
2-122 Geraldine Street,St. Albans,Christchurch City,,unit,2,1,1,,1,96,80,,410,13/08/2025,42,"Braziers Limited, (Licensed: REAA 2008)",350000,210000,140000,1/08/2022,Single Unit excluding Bach,Residential Medium Density,Rear,No appreciable view,Steel/G-Iron,Concrete,Residential-OYO-1970's-average,,,,No,-43.5145153,172.6474937
2/449 Durham Street,St. Albans,Christchurch City,8014,unit,2,1,,8,2,96,80,2025,410,29/08/2025,26,"Cowdy, (Licensed: REAA 2008)",625000,300632.9114,324367.0886,1/08/2022,Multi-unit,Residential Medium Density,Inside,No appreciable view,Steel/G-Iron,Concrete,Residential-Purpose built flat-1960's-average,,,,No,-43.5201126,172.6331769
64A Matipo Street,Riccarton,Christchurch City,8041,unit,2,1,2,2,2,106,84.5,2025,410,2/08/2025,53,myRent.co.nz Ltd,610000,353021.2766,256978.7234,1/08/2022,Multi-unit,Residential,Inside,No appreciable view,Steel/G-Iron,Weatherboard,Residential-Vacant Flat Land,partial,washing machine,,No,-43.5301431,172.5955286
6/23 Frederick Street,Waltham,Christchurch City,8011,unit,2,1,1,2,2,140,90,2025,410,28/07/2025,58,Ruby Property Enterprises Ltd,468750,273032.256,195717.744,1/08/2022,Multi-unit,Residential Suburban Density Transition,Inside,No appreciable view,Tile Profile,Concrete,Residential-Purpose built flat-1970's-average,,,Pets OK,Yes,-43.5429353,172.6634291
12A RAWHITI AVENUE,NEW BRIGHTON,CHRISTCHURCH,8083,Unit,2,1,,2,2,620,,1955,410,30/04/2025,8,Real Property Management Limited,650000,420000,230000,1/08/2022,Multi-unit,Residential Medium Density,Inside,No appreciable view,Tile Profile,Brick,Residential-Purpose built flat-1950's-average,nill,,,NO,-43.5000969,172.7272479
1/58 ORAM AVENUE,NEW BRIGHTON,CHRISTCHURCH,8061,Unit,2,1,,3,3,790,,1905,410,11/07/2025,312,Real Property Management Limited,810000,410000,400000,1/08/2022,Multi-unit,Residential Suburban Density Transition,Inside,No appreciable view,Steel/G-Iron,Weatherboard,Residential-Converted Flat-pre 1914-average,partial,washing machine,,NO,-43.5103099,172.7303687
3/452 BARBADOES STREET,EDGEWARE,CHRISTCHURCH,8013,Unit,2,1,,1,1,790,,1960,410,4/09/2025,6,"Cowdy, (Licensed: Reaa 2008)",,,55000,1/08/2022,Single Unit excluding Bach,Residential Medium Density,Inside,No appreciable view,Steel/G-Iron,Concrete,Residential-OYO-1960's-average,,,,NO,-43.5192291,172.6465605
2/8 STANMORE ROAD,PHILLIPSTOWN,CHRISTCHURCH,8011,,2,1,1,,3,706,65,1975,410,2/09/2025,8,"Holmwood Property Management - Sherborne, (Licensed: Reaa 2008)",500000,325000,275000,1/08/2022,Multi-unit,Residential Medium Density,Inside,No appreciable view,Tile Profile,Concrete,Residential-Purpose built flat-1970's-average,nill,,,YES,-43.5321487,172.6565707
57 BARRINGTON STREET,SOMERFIELD,CHRISTCHURCH,8024,House,1,1,,1,1,607,60,1945,410,12/05/2025,225,First National Progressive,690000,405000,285000,1/08/2022,Multi-unit,Residential Suburban,Inside,No appreciable view,Tile Profile,Weatherboard,Residential-Dwelling-1940's-average,nill,,,NO,-43.5649477,172.6271008
24 MAFEKING STREET,NEW BRIGHTON,CHRISTCHURCH,8061,Unit,3,3,,1,1,1260,130,1955,410,9/03/2025,20,-,650000,500000,150000,1/08/2022,Multi-unit,Residential Suburban Density Transition,Inside,No appreciable view,Tile Profile,Concrete,Residential-Purpose built flat-1950's-average,nill,,,NO,-43.5086266,172.7286887
13B BURNS STREET,SYDENHAM,CHRISTCHURCH,8023,,1,1,,1,1,71,70,2025,415,19/05/2025,7,Garden City Property Management,420000,134000,286000,1/08/2022,Multi-unit,Residential Medium Density,Rear,No appreciable view,Steel/G-Iron,Fibre Cement,Residential-OYO-1990's-average,nill,,,NO,-43.5494364,172.6288197
2/527 WORCESTER STREET,LINWOOD,CHRISTCHURCH,8011,Unit,2,1,,1,1,162,59,1960,415,4/04/2025,2,Harcourts Holmwood Property Management - Sherborne,330000,200000,130000,1/08/2022,Single Unit excluding Bach,Central City Guest Accommodation,Rear,No appreciable view,Steel/G-Iron,Stone,Residential-OYO-1960's-average,nill,,,NO,-43.5307051,172.6659135
3/482 Gloucester Street,Linwood,Christchurch City,8011,Unit,2,1,1,,1,224,74,1975,415,9/09/2025,15,,605000,190000,415000,1/08/2022,Single Unit excluding Bach,,Rear,No appreciable view,Steel/G-Iron,Mix.Material,Residential-OYO-2020/2029-average,,,,Yes,-43.530149,172.6600652
2/17 ROSEWARNE STREET,SPREYDON,CHRISTCHURCH,8024,Unit,2,1,,1,1,,83,1980,415,5/06/2025,7,The Good Girls Property Management Ltd,355000,200000,155000,1/08/2022,Single Unit excluding Bach,Residential Medium Density,Rear,No appreciable view,Steel/G-Iron,Fibre Cement,Residential-OYO-1980's-average,,,,NO,-43.550133,172.6184911
473A GLOUCESTER STREET,LINWOOD,CHRISTCHURCH,8011,Unit,2,1,,2,6,98,73,1975,419,4/09/2025,7,"Braziers Limited, (Licensed: Reaa 2008)",540000,201869.1589,338130.8411,1/08/2022,Multi-unit,Residential Medium Density,Inside,No appreciable view,Steel/G-Iron,Concrete,Residential-Purpose built flat-1970's-average,nill,,,NO,-43.5294236,172.6592901
5/473A Gloucester Street,Linwood,Christchurch City,8011,unit,2,1,,2,2,106,73,2025,419,4/09/2025,20,"Braziers Limited, (Licensed: REAA 2008)",560000,418992.8058,141007.1942,1/08/2022,Multi-unit,Residential Medium Density,Inside,No appreciable view,Steel/G-Iron,Concrete,Residential-Purpose built flat-1970's-average,,,,No,-43.5294236,172.6592901
5/459 MADRAS STREET,ST ALBANS,CHRISTCHURCH,8014,Unit,1,1,,,,,40,1975,420,21/02/2025,7,Myrent.Co.NZ Ltd,320000,230000,90000,1/08/2022,Single Unit excluding Bach,Residential Medium Density,Inside,No appreciable view,Steel/G-Iron,Concrete,Residential-OYO-1970's-poor,partial,fridge;fridge/freezer;washing machine,,NO,-43.518193,172.642099
9/20 STANMORE ROAD,PHILLIPSTOWN,CHRISTCHURCH,8011,Apartment,1,1,,1,1,,45,2010,420,21/02/2025,7,Pukeko Rental Managers,280000,130000,150000,1/08/2022,Single Unit excluding Bach,Residential Medium Density,,No appreciable view,Steel/G-Iron,Mix.Material,Residential-Apartment-2010/2019-average,nill,unfurnished,,NO,-43.5305315,172.6570739
6/20 LEYDEN STREET,PHILLIPSTOWN,CHRISTCHURCH,8011,Townhouse,1,1,,1,1,,46,2000,420,17/06/2025,7,Rent Wise Property Management,310000,155000,155000,1/08/2022,Single Unit excluding Bach,Residential Medium Density,Inside,No appreciable view,Steel/G-Iron,Mix.Material,Residential-OYO-2000/2009-average,nill,,,NO,-43.539145,172.6578549
3/260 Kilmore Street,City Centre,Christchurch City,8011,apartment,1,1,,,,64,48,2025,420,3/09/2025,21,Metro Advances Limited,500000,230000,270000,1/08/2022,Single Unit excluding Bach,Central City Guest Accommodation,Inside,No appreciable view,Steel/G-Iron,Mix.Material,Residential-OYO-2020/2029-average,,,,No,-43.5270867,172.6478332
2/6 Moa Place,City Centre,Christchurch City,8013,apartment,1,1,,,,53,50,,420,22/08/2025,33,Holmwood Property Management,415000,200000,215000,1/08/2022,Single Unit excluding Bach,Central City Guest Accommodation,Inside,No appreciable view,Steel/G-Iron,Mix.Material,Residential-OYO-2020/2029-average,,,,No,-43.5226604,172.643068
71A Geraldine street,Edgeware,Christchurch City,8013,unit,1,1,,1,1,77,51,2021,420,24/08/2025,31,,485000,205000,280000,1/08/2022,Single Unit excluding Bach,Residential Medium Density,Inside,No appreciable view,Steel/G-Iron,Mix.Material,Residential-OYO-2020/2029-average,nill,unfurnished,,No,-43.5172012,172.6472171
71A GERALDINE STREET,EDGEWARE,CHRISTCHURCH,8013,Townhouse,1,1,1,,1,139,51,2021,420,25/08/2025,16,-,485000,205000,280000,1/08/2022,Single Unit excluding Bach,Residential Medium Density,Inside,No appreciable view,Steel/G-Iron,Mix.Material,Residential-OYO-2020/2029-average,,,,YES,-43.5172012,172.6472171
G302/270 Saint Asaph Street,City Centre,Christchurch City,,apartment,1,1,,1,1,64,52,,420,13/08/2025,42,,510000,237326.7327,272673.2673,1/08/2022,Multi-use within Commercial,Commercial Central City Mixed Use,,,Steel/G-Iron,Mix.Material,Commercial-Multiple/Other-CBD,partial,fridge;washing machine,,No,-43.52817106,172.6419488
G302/270 Saint Asaph Street,City Centre,Christchurch City,,apartment,1,1,,1,1,64,52,,420,13/08/2025,42,,510000,237326.7327,272673.2673,1/08/2022,Multi-use within Commercial,Commercial Central City Mixed Use,,,Steel/G-Iron,Mix.Material,Commercial-Multiple/Other-CBD,partial,fridge;washing machine,,No,-43.52817106,172.6419488
11/269 Kilmore Street,City Centre,Christchurch City,2025,apartment,1,1,5,,1,64,52,2025,420,19/08/2025,36,Metro Advances Limited,510000,237326.7327,272673.2673,1/08/2022,Multi-unit,Central City Guest Accommodation,Inside,No appreciable view,Steel/G-Iron,"Roughcast,etc",Residential-Multiple Dwellings-2020/2029-average,nill,unfurnished,,No,-43.526455,172.6481448
3/82 Riccarton Road,Riccarton,Christchurch City,,apartment,1,1,,,,62,56,,420,5/09/2025,19,Iron Bridge Property Management - Christchurch,455000,200000,255000,1/08/2022,Single Unit excluding Bach,Central City Guest Accommodation,Inside,No appreciable view,Steel/G-Iron,Mix.Material,Residential-OYO-2020/2029-average,,,,No,-43.5294119,172.6028098
32b Slater Street,Richmond,Christchurch City,8013,unit,1,1,,2,1,77,56,1925,420,11/09/2025,13,Prestige Property Management Limited,500000,275000,225000,1/08/2022,Multi-unit,Residential Suburban,Inside,No appreciable view,Tile Profile,Weatherboard,Residential-Converted Flat-1914/1929-average,,,Pets OK,No,-43.5128457,172.6531336
10/260 Kilmore Street,City Centre,Christchurch City,8011,apartment,1,1,,,,64,57,2025,420,22/09/2025,2,Metro Advances Limited,530000,250000,280000,1/08/2022,Single Unit excluding Bach,Central City Guest Accommodation,Inside,No appreciable view,Steel/G-Iron,Mix.Material,Residential-OYO-2020/2029-average,nill,unfurnished,,No,-43.5270867,172.6478332
10/14 BROUGHAM STREET,ADDINGTON,CHRISTCHURCH,8024,Townhouse,1,1,1,,1,71,59,2025,420,12/02/2025,8,Real Property Management Limited,360000,150000,210000,1/08/2022,Single Unit excluding Bach,Residential Medium Density,Rear,No appreciable view,Steel/G-Iron,Concrete,Residential-OYO-2000/2009-average,Fully Furnished,,,YES,-43.5476516,172.6177935
2/2 GREENPARK STREET,HOON HAY,CHRISTCHURCH,8025,,1,1,,1,1,71,60,2025,420,19/06/2025,2,Freedom Property Management Limited,370000,265000,105000,1/08/2022,Single Unit excluding Bach,Residential Suburban,Inside,No appreciable view,Steel/G-Iron,Concrete,Residential-OYO-1970's-average,nill,,,NO,-43.5633358,172.6106171
43 GRAFTON STREET,WALTHAM,CHRISTCHURCH,8011,,1,1,1,,1,,,2010,420,22/07/2025,43,Metro Advances Limited,,,,1/08/2022,Multi-unit,Residential Medium Density,Inside,No appreciable view,Steel/G-Iron,Concrete,Residential-Multiple Dwellings-2010/2019-average,nill,,,YES,-43.5441398,172.6576068
6 WESTON ROAD,ST ALBANS,CHRISTCHURCH,8052,Unit,1,1,,2,2,508,,1905,420,11/08/2025,31,"Cowdy, (Licensed: Reaa 2008)",1040000,820000,220000,1/08/2022,Multi-unit,Residential Suburban,Inside,No appreciable view,Steel/G-Iron,"Roughcast,etc",Residential-Converted Flat-pre 1914-average,nill,,,NO,-43.5073309,172.6180817
18/31 BORDESLEY STREET,PHILLIPSTOWN,CHRISTCHURCH,8011,Apartment,2,1,1,,1,,51,2000,420,20/01/2025,7,-,320000,140000,180000,1/08/2022,Single Unit excluding Bach,Residential Medium Density,Rear,No appreciable view,Steel/G-Iron,Concrete,Residential-Apartment-2000/2009-average,nill,,,YES,-43.5396327,172.6614063
23/31 BORDESLEY STREET,PHILLIPSTOWN,CHRISTCHURCH,8011,Apartment,2,1,1,,1,,51,2000,420,26/07/2025,7,-,320000,140000,180000,1/08/2022,Single Unit excluding Bach,Residential Medium Density,Rear,No appreciable view,Steel/G-Iron,Concrete,Residential-Apartment-2000/2009-average,partial,fridge;microwave;washing machine,,YES,-43.5395994,172.6611722
4/72 WARD STREET,ADDINGTON,CHRISTCHURCH,8024,Unit,2,1,,1,1,,54,1980,420,16/01/2025,52,"Irelands, (Licensed: Reaa 2008)",400000,127000,273000,1/08/2022,Single Unit excluding Bach,Residential Medium Density,Rear,No appreciable view,Steel/G-Iron,Concrete,Residential-OYO-1980's-average,nill,,,NO,-43.5461457,172.6212792
2/98 HUXLEY STREET,SYDENHAM,CHRISTCHURCH,8023,Unit,2,1,1,,1,157,58,1975,420,21/01/2025,4,Max Property Management Ltd,350000,190000,160000,1/08/2022,Single Unit excluding Bach,Residential Medium Density,Inside,No appreciable view,Steel/G-Iron,Concrete,Residential-OYO-1970's-average,nill,,,YES,-43.5520675,172.6419835
1/98 HUXLEY STREET,SYDENHAM,CHRISTCHURCH,8023,Unit,2,1,1,,1,239,58,1975,420,20/06/2025,8,Max Property Management Ltd,360000,205000,155000,1/08/2022,Single Unit excluding Bach,Residential Medium Density,Inside,No appreciable view,Steel/G-Iron,Concrete,Residential-OYO-1970's-average,nill,,No,YES,-43.5519994,172.6420794
2/15 HARAKEKE STREET,RICCARTON,CHRISTCHURCH,8011,Unit,2,1,,1,1,,60,1960,420,20/02/2025,7,Myrent.Co.NZ Ltd,560000,415000,145000,1/08/2022,Single Unit excluding Bach,Central City Guest Accommodation,Rear,No appreciable view,Tile Profile,Concrete,Residential-OYO-1960's-average,nill,,,NO,-43.5280442,172.6050825
6/507 CASHEL STREET,LINWOOD,CHRISTCHURCH,8011,Unit,2,1,1,,1,,60,1975,420,6/05/2025,31,The Good Girls Property Management Ltd,310000,140000,170000,1/08/2022,Single Unit excluding Bach,Residential Medium Density,Inside,No appreciable view,Steel/G-Iron,Mix.Material,Residential-OYO-1970's-average,,,,YES,-43.5326832,172.6616341
11 CHARLES STREET,WALTHAM,CHRISTCHURCH,8011,House,2,1,,2,2,706,60,1905,420,16/05/2025,7,-,585000,580000,5000,1/08/2022,Single Unit excluding Bach,Residential Medium Density,Inside,No appreciable view,Steel/G-Iron,Weatherboard,Residential-Dwelling-pre 1914-poor,,,,NO,-43.542919,172.65635
29B HAY STREET,BROMLEY,CHRISTCHURCH,8062,Unit,2,1,,1,1,,60,1975,420,25/06/2025,2,Harcourts Asset Managers,405000,215000,190000,1/08/2022,Single Unit excluding Bach,Central City Guest Accommodation,Inside,No appreciable view,Steel/G-Iron,Concrete,Residential-OYO-1970's-average,nill,,,NO,-43.5350546,172.6800017
2/79 CHAMPION STREET,EDGEWARE,CHRISTCHURCH,8013,Unit,2,1,,1,1,,60,1975,420,21/07/2025,54,Iron Bridge Property Management - Christchurch,420000,230000,190000,1/08/2022,Single Unit excluding Bach,Residential Medium Density,Inside,No appreciable view,Tile Profile,Concrete,Residential-OYO-1970's-average,nill,,Pets OK,NO,-43.5172881,172.6488382
2/238 MILTON STREET,SYDENHAM,CHRISTCHURCH,8023,Unit,2,1,,1,1,,60,1975,420,18/08/2025,185,Iron Bridge Property Management - Christchurch,345000,205000,140000,1/08/2022,Single Unit excluding Bach,Residential Zone D,Inside,No appreciable view,Steel/G-Iron,Concrete,Residential-OYO-1970's-average,nill,,Pets OK,NO,-43.5508594,172.6341767
2/238 Milton Street,Sydenham,Christchurch City,8023,unit,2,1,,1,1,106,60,1975,420,18/08/2025,37,Iron Bridge Property Management - Christchurch,345000,205000,140000,1/08/2022,Single Unit excluding Bach,,Inside,No appreciable view,Steel/G-Iron,Concrete,Residential-OYO-1970's-average,,,Pets OK,No,-43.5508113,172.6341724
3/34 BROUGHAM STREET,ADDINGTON,CHRISTCHURCH,8024,Unit,2,1,,1,1,,61,1970,420,21/03/2025,36,Cowdy,325000,200000,125000,1/08/2022,Single Unit excluding Bach,Residential Medium Density,Rear,No appreciable view,Tile Profile,Concrete,Residential-OYO-1970's-average,nill,,,NO,-43.5478067,172.6192057
1/452 BARBADOES STREET,EDGEWARE,CHRISTCHURCH,8013,Unit,2,1,,1,1,,62,1965,420,21/04/2025,29,Cowdy,315000,260000,55000,1/08/2022,Single Unit excluding Bach,Residential Medium Density,Inside,No appreciable view,Steel/G-Iron,Concrete,Residential-OYO-1960's-average,nill,,,NO,-43.5192494,172.6461863
3/16 Hargest Cres,Sydenham,Christchurch City,8023,Unit,2,1,,2,1,252,63,1970,420,,,,375000,225000,150000,1/08/2022,Single Unit excluding Bach,Residential Medium Density,Inside,No appreciable view,Tile Profile,Concrete,Residential-OYO-1970's-average,,,Pets OK,No,-43.5492271,172.645567
2/497 GLOUCESTER STREET,LINWOOD,CHRISTCHURCH,8011,Unit,2,1,1,,1,,70,1975,420,23/07/2025,7,Harcourts Vision Property Management Ltd,375000,245000,130000,1/08/2022,Single Unit excluding Bach,Residential Medium Density,Inside,No appreciable view,Tile Profile,Concrete,Residential-OYO-1970's-average,nill,,Pets OK,YES,-43.5295944,172.6607171
3/107 Holly Road,St. Albans,Christchurch City,8014,apartment,2,1,1,,1,117,70,1970,420,8/08/2025,47,"Cowdy, (Licensed: REAA 2008)",470000,275000,195000,1/08/2022,Single Unit excluding Bach,Residential Suburban Density Transition,Rear,No appreciable view,Tile Profile,Concrete,Residential-OYO-1970's-poor,,,,Yes,-43.515449,172.6322272
3/107 HOLLY ROAD,ST ALBANS,CHRISTCHURCH,8014,Unit,2,1,1,,1,,70,1970,420,9/08/2025,2,"Cowdy, (Licensed: Reaa 2008)",470000,275000,195000,1/08/2022,Single Unit excluding Bach,Residential Suburban Density Transition,Rear,No appreciable view,Tile Profile,Concrete,Residential-OYO-1970's-poor,nill,,,YES,-43.5154511,172.6321962
1/21 Cumberland Street,Richmond,Christchurch City,8013,unit,2,1,,1,1,106,70,,420,20/09/2025,4,"Whittle Knight Real Estate Ltd, (Licensed: REAA 2008)",320000,215000,105000,1/08/2022,Single Unit excluding Bach,,Inside,No appreciable view,Steel/G-Iron,Concrete,Residential-OYO-1970's-average,,,Pets OK,No,-43.5192652,172.6539911
4/7 Wrights Road,Addington,Christchurch City,8024,unit,2,1,,1,1,88.5,72,1970,420,28/08/2025,27,"Cowdy, (Licensed: REAA 2008)",610000,165423.7288,444576.2712,1/08/2022,Personal and Property Protect,Living 1 Def,,,Steel/G-Iron,Mix.Material,Industrial-Service-Suburban,,,,No,-43.5495518,172.6003833
451 Tuam Street,Phillipstown,Christchurch City,8011,House,2,1,,2,1,257,72,1915,420,4/09/2025,20,Iron Bridge Property Management - Christchurch,425000,275000,150000,1/08/2022,Single Unit excluding Bach,Residential Medium Density,Inside,No appreciable view,Steel/G-Iron,Weatherboard,Residential-Dwelling-pre 1914-average,,,Pets OK,No,-43.5353158,172.6579382
451 TUAM STREET,PHILLIPSTOWN,CHRISTCHURCH,8011,,2,1,,1,1,257,72,1915,420,5/09/2025,6,Iron Bridge Property Management - Christchurch,425000,275000,150000,1/08/2022,Single Unit excluding Bach,Residential Medium Density,Inside,No appreciable view,Steel/G-Iron,Weatherboard,Residential-Dwelling-pre 1914-average,nill,,,NO,-43.5353158,172.6579382
5/42 Mathesons Road,Phillipstown,Christchurch City,8011,unit,2,1,,,,106,72,1975,420,8/09/2025,16,Prestige Property Management Limited,540000,225000,315000,1/08/2022,Single Unit excluding Bach,Residential Medium Density,Inside,No appreciable view,Steel/G-Iron,Concrete,Residential-OYO-1970's-average,partial,washing machine,Pets OK,No,-43.538581,172.659622
1/8 Stanmore Road,Linwood,Christchurch City,8011,unit,2,1,,2,2,106,73,2025,420,24/09/2025,0,"Holmwood Property Management - Sherborne, (Licensed: REAA 2008)",560000,420000,140000,1/08/2022,Multi-unit,Residential Medium Density,Inside,No appreciable view,Tile Profile,Concrete,Residential-Purpose built flat-1970's-average,,,Pets OK,No,-43.5321487,172.6565707
2/410 WORCESTER STREET,LINWOOD,CHRISTCHURCH,8011,Unit,2,1,,1,1,151,75,1965,420,6/08/2025,7,Rent Wise Property Management,345000,230000,115000,1/08/2022,Single Unit excluding Bach,Residential Zone D,Rear,No appreciable view,Steel/G-Iron,Concrete,Residential-OYO-1960's-average,nill,,,NO,-43.5311582,172.6587351
7 WRIGHTS ROAD,ADDINGTON,CHRISTCHURCH,8024,Unit,2,1,,8,6,85,75,1970,420,29/08/2025,13,"Cowdy, (Licensed: Reaa 2008)",610000,167258.0645,442741.9355,1/08/2022,Multi-unit,Residential Zone D,Inside,No appreciable view,Steel/G-Iron,Brick,Residential-Purpose built flat-1970's-average,nill,,,NO,-43.5495518,172.6003833
1/116 Burke Street,Sydenham,Christchurch City,8023,unit,2,1,,1,2,106,75,1965,420,19/09/2025,5,"Cowdy, (Licensed: REAA 2008)",570000,194418.6047,375581.3953,1/08/2022,Multi-unit,Residential Medium Density,Inside,No appreciable view,Steel/G-Iron,Brick,Residential-Purpose built flat-1960's-average,,,Pets OK,No,-43.5453579,172.6293639
940 COLOMBO STREET,ST ALBANS,CHRISTCHURCH,8014,Unit,2,1,,2,2,101,76,1965,420,26/01/2025,8,-,630000,310873.3624,319126.6376,1/08/2022,Multi-unit,Residential Medium Density,Inside,No appreciable view,Tile Profile,Brick,Residential-Purpose built flat-1960's-average,nill,,,NO,-43.5196918,172.637103
4/9A CURLETTS ROAD,SOCKBURN,CHRISTCHURCH,8042,Unit,2,1,,1,1,,76,1960,420,4/03/2025,48,Whittle Knight Real Estate Agents,435000,230000,210000,1/08/2022,Single Unit excluding Bach,Residential Suburban,Rear,No appreciable view,Steel/G-Iron,Concrete,Residential-OYO-1960's-average,nill,,,NO,-43.5337551,172.5686897
49 EDGEWARE ROAD,ST ALBANS,CHRISTCHURCH,8014,Unit,2,1,4,,4,101,76,1960,420,13/06/2025,2,Holmwood Property Management,630000,310873.3624,319126.6376,1/08/2022,Multi-unit,Residential Zone D,Inside,No appreciable view,Tile Profile,Concrete,Residential-Purpose built flat-1960's-average,nill,,No,YES,-43.5132975,172.6357896
121 SAINT ALBANS STREET,ST ALBANS,CHRISTCHURCH,8014,Unit,2,1,7,,6,101,76,1960,420,19/08/2025,22,-,630000,310873.3624,319126.6376,1/08/2022,Multi-unit,Residential Suburban Density Transition,Inside,No appreciable view,Steel/G-Iron,Mix.Material,Residential-Purpose built flat-1960's-average,nill,,,YES,-43.5152595,172.6441652
8/97 WARDEN STREET,RICHMOND,CHRISTCHURCH,8013,,2,1,1,,1,,78,2000,420,25/06/2025,3,Harcourts Asset Managers,515000,195000,320000,1/08/2022,Single Unit excluding Bach,Central City Guest Accommodation,Inside,No appreciable view,Tile Profile,Brick,Residential-Dwelling-2000/2009-average,nill,,No,YES,-43.5092992,172.6595674
2/14 FREDERICK STREET,WALTHAM,CHRISTCHURCH,8011,Unit,2,1,,1,1,,80,1975,420,23/01/2025,7,"Glass Miles Ltd, (Licensed: Reaa 2008)",385000,170000,215000,1/08/2022,Single Unit excluding Bach,Residential Suburban Density Transition,Inside,No appreciable view,Steel/G-Iron,Concrete,Residential-OYO-1970's-average,nill,,,NO,-43.5429899,172.6623986
2 CLINTON LANE,WOOLSTON,CHRISTCHURCH,8062,Townhouse,2,1,1,,1,,80,2000,420,28/01/2025,8,Utiger Properties,305000,225000,80000,1/08/2022,Single Unit excluding Bach,Residential Suburban,Inside,No appreciable view,Steel/G-Iron,Brick,Residential-OYO-2000/2009-poor,nill,,No,YES,-43.5480574,172.6866425
1/28 GLANDOVEY ROAD,FENDALTON,CHRISTCHURCH,8052,Unit,2,1,,1,1,,80,1950,420,29/01/2025,120,Cowdy,670000,590000,80000,1/08/2022,Single Unit excluding Bach,Residential Suburban,Inside,No appreciable view,Steel/G-Iron,Concrete,Residential-OYO-1950's-average,nill,,,NO,-43.5171974,172.5961198
3/990 COLOMBO STREET,ST ALBANS,CHRISTCHURCH,8014,Unit,2,1,,1,1,,80,1965,420,11/03/2025,8,Cowdy,435000,335000,100000,1/08/2022,Single Unit excluding Bach,Residential Medium Density,Inside,No appreciable view,Tile Profile,Concrete,Residential-OYO-1960's-average,nill,,,NO,-43.5175235,172.6369931
50 DOMAIN TERRACE,SPREYDON,CHRISTCHURCH,8024,Unit,2,1,1,,1,473,80,1925,420,20/03/2025,64,Whittle Knight Real Estate Agents,750000,350000,400000,1/08/2022,Multi-unit,Residential Suburban,Inside,No appreciable view,Steel/G-Iron,Weatherboard,Residential-Multiple Dwellings-Mixed Age-average,nill,,,YES,-43.5558747,172.6024195
1/8 NEW BRIGHTON ROAD,SHIRLEY,CHRISTCHURCH,8061,Townhouse,2,2,1,,1,,80,2022,420,2/05/2025,144,Irelands,580000,190000,390000,1/08/2022,Single Unit excluding Bach,Central City Guest Accommodation,Inside,No appreciable view,Steel/G-Iron,Mix.Material,Residential-OYO-2020/2029-average,nill,,,YES,-43.5081972,172.6637614
142 ROSSALL STREET,MERIVALE,CHRISTCHURCH,8014,Unit,2,1,,1,1,,80,1960,420,6/05/2025,3,"Braziers Limited, (Licensed: Reaa 2008)",580000,380000,200000,1/08/2022,Single Unit excluding Bach,Residential Suburban Density Transition,Rear,No appreciable view,Steel/G-Iron,Concrete,Residential-OYO-1960's-average,nill,,No,NO,-43.5163088,172.6135644
1/106 BARRINGTON STREET,SOMERFIELD,CHRISTCHURCH,8024,Unit,2,1,1,,1,108.5,80,1972,420,23/05/2025,7,Harcourts Gold,590000,311208.7912,278791.2088,1/08/2022,Single Unit excluding Bach,Residential Suburban,Inside,No appreciable view,Tile Profile,Concrete,Residential-OYO-1970's-average,nill,,,YES,-43.5625333,172.6251382
1/232 WILSONS ROAD,WALTHAM,CHRISTCHURCH,8023,Unit,2,1,,1,1,,80,1975,420,3/06/2025,7,-,400000,270000,130000,1/08/2022,Single Unit excluding Bach,Residential Suburban Density Transition,Inside,No appreciable view,Steel/G-Iron,Concrete,Residential-OYO-1970's-average,nill,,,NO,-43.5519861,172.6514429
5/17 GERALDINE STREET,EDGEWARE,CHRISTCHURCH,8013,Unit,2,1,,1,1,,80,1975,420,19/06/2025,17,"Holmwood Property Management - Sherborne, (Licensed: Reaa 2008)",420000,170000,250000,1/08/2022,Single Unit excluding Bach,Residential Medium Density,Inside,No appreciable view,Tile Profile,Concrete,Residential-OYO-1970's-average,nill,,,NO,-43.5198401,172.6470737
3/17 BARRIE STREET,ADDINGTON,CHRISTCHURCH,8024,Unit,2,1,,,,,80,1975,420,10/07/2025,24,The Property Boss Limited,440000,175000,265000,1/08/2022,Single Unit excluding Bach,Residential Medium Density,Inside,No appreciable view,Steel/G-Iron,Concrete,Residential-OYO-1970's-average,nill,,,NO,-43.5472321,172.6252663
1/65 Caledonian Road,St. Albans,Christchurch City,8014,unit,2,1,,,,96,80,1905,420,24/09/2025,0,RentWorks Property Management 2018 Ltd,625000,300632.9114,324367.0886,1/08/2022,Multi-unit,Residential Medium Density,Inside,No appreciable view,Steel/G-Iron,Weatherboard,Residential-Vacant Flat Land,,,,No,-43.5177361,172.6353277
5/25 FRANK STREET,PAPANUI,CHRISTCHURCH,8053,Unit,2,1,,6,6,96.5,81,1980,420,26/05/2025,7,Myrent.Co.NZ Ltd,560000,324210.5263,235789.4737,1/08/2022,Multi-unit,Central City Guest Accommodation,Inside,No appreciable view,Steel/G-Iron,Concrete,Residential-Purpose built flat-1980's-average,,,,NO,-43.4976792,172.6105421
2/510 LINWOOD AVENUE,WOOLSTON,CHRISTCHURCH,8062,,2,1,,1,1,87,90,2025,420,5/06/2025,4,Harcourts Asset Managers,390000,250000,140000,1/08/2022,Single Unit excluding Bach,Residential Suburban,Inside,No appreciable view,Tile Profile,Concrete,Residential-OYO-1970's-average,nill,,,NO,-43.5435505,172.6887448
18a Somme Street,St Albans,8014,,unit,2,1,,2,2,106,90,,420,18/08/2025,37,,525000,347142.8571,177857.1429,1/08/2022,Single Unit excluding Bach,Central City Guest Accommodation,Inside,No appreciable view,Steel/G-Iron,Concrete,Residential-OYO-1990's-average,partial,washing machine,,No,-43.5091704,172.6288854
78A Veitches Road,Casebrook,Christchurch City,8051,unit,2,1,1,1,1,140,90,1977,420,19/09/2025,5,,455000,250000,205000,1/08/2022,Single Unit excluding Bach,Residential Suburban,Rear,No appreciable view,Tile Profile,Concrete,Residential-OYO-1970's-average,,,Pets OK,Yes,-43.4815806,172.599076
2/71 SPRINGFIELD ROAD,ST ALBANS,CHRISTCHURCH,8014,Apartment,2,1,2,,2,,107,2000,420,19/05/2025,79,Holmwood Property Management,490000,215000,275000,1/08/2022,Single Unit excluding Bach,Residential Medium Density,Rear,No appreciable view,Steel/G-Iron,Concrete,Residential-Apartment-2000/2009-average,partial,microwave,No,YES,-43.5172491,172.6321923
2/404 MAIN NORTH ROAD,REDWOOD,CHRISTCHURCH,8051,Unit,2,1,1,,1,,110,1970,420,18/05/2025,9,Garden City Property Management Ltd,470000,185000,285000,1/08/2022,Single Unit excluding Bach,Residential Suburban,Inside,No appreciable view,Tile Profile,Concrete,Residential-OYO-1970's-average,nill,,,YES,-43.4719796,172.6176134
213 England Street,Linwood,Christchurch City,8011,House,2,1,2,2,1,604,111,1915,420,8/07/2025,78,Metro Advances Limited,620000,460000,160000,1/08/2022,Single Unit excluding Bach,Residential Suburban Density Transition,Inside,No appreciable view,Steel/G-Iron,Weatherboard,Residential-Dwelling-pre 1914-average,,,,Yes,-43.5258776,172.6658987
213 ENGLAND STREET,LINWOOD,CHRISTCHURCH,8011,House,2,1,,1,1,604,111,1915,420,2/09/2025,64,Metro Advances Limited,620000,460000,160000,1/08/2022,Single Unit excluding Bach,Residential Suburban Density Transition,Inside,No appreciable view,Steel/G-Iron,Weatherboard,Residential-Dwelling-pre 1914-average,nill,,,NO,-43.5258776,172.6658987
57 PERTH STREET,RICHMOND,CHRISTCHURCH,8013,House,2,1,,1,1,441,130,1915,420,8/05/2025,71,A1 Property Managers Ltd,500000,430000,70000,1/08/2022,Single Unit excluding Bach,Residential Medium Density,Inside,No appreciable view,Steel/G-Iron,Weatherboard,Residential-Dwelling-1914/1929-average,nill,,,NO,-43.5198769,172.6527814
3/9 Rodney Street,New Brighton,Christchurch City,8061,Unit,2,1,,2,2,445,240,1915,420,29/08/2025,26,"Ray White New Brighton (Results Realty Ltd), (Licensed: REAA 2008)",960000,365000,595000,1/08/2022,Multi-unit,Residential Medium Density,Inside,No appreciable view,Steel/G-Iron,Concrete,Residential-Purpose built flat-1970's-average,,,,No,-43.513496,172.7326035
349 HEREFORD STREET,LINWOOD,CHRISTCHURCH,8011,Unit,2,2,,1,1,508,,1935,420,7/05/2025,22,The Rent Shop Ltd,620000,405000,215000,1/08/2022,Multi-unit,Residential Medium Density,Inside,No appreciable view,Steel/G-Iron,Weatherboard,Residential-Converted Flat-1930's-average,nill,,,NO,-43.5317618,172.6519659
1/70 ALEXANDRA STREET,RICHMOND,CHRISTCHURCH,8013,,2,1,,1,1,912,,1997,420,26/05/2025,7,Wolfbrook Property Management,,,195000,1/08/2022,Multi-unit,Residential Zone C,Inside,No appreciable view,Steel/G-Iron,Mix.Material,Residential-OYO-1970's-average,nill,,No,NO,-43.5228465,172.6551674
12 ALEXANDRA STREET,RICHMOND,CHRISTCHURCH,8013,Unit,2,1,,2,3,610,,1965,420,12/08/2025,92,"Cowdy, (Licensed: Reaa 2008)",780000,570000,210000,1/08/2022,Multi-unit,Residential Medium Density,Inside,No appreciable view,Steel/G-Iron,Concrete,Residential-Purpose built flat-1960's-average,nill,,,NO,-43.523098,172.6515126
3/110 OLLIVIERS ROAD,PHILLIPSTOWN,CHRISTCHURCH,8011,House,2,1,,,,653,80,1965,420,15/02/2025,7,"Whittle Knight Real Estate Ltd, (Licensed: Reaa 2008)",610000,475000,140000,1/08/2022,Multi-unit,Residential Medium Density,Inside,No appreciable view,Steel/G-Iron,Concrete,Residential-Purpose built flat-1960's-average,,,,NO,-43.5362909,172.6636896
