street_address,suburb,city,postcode,property_type2,bedrooms,bathrooms,garage_parks,offstreet_parks,Carparks,land_size,floor_size,year_built,last_rent_price,last_rent_date,days_on_market,agency,capital_value,land_value,improvement_value,valuation,land_use,development_zone,position,view,roof_construction,wall_construction,category,furnishings,furnishings_evidence,pets,garage,Latitude,Longitude
2/5 SHEARER AVENUE,PAPANUI,CHRISTCHURCH,8052.0,Townhouse,1.0,1.0,1.0,,1.0,87.0,29.0,2022.0,550.0,19/08/2025,44.0,Managed By Williams,540000.0,330000.0,210000.0,1/08/2022,Single Unit excluding Bach,Residential Medium Density,Inside,No appreciable view,Steel/G-Iron,Mix.Material,Residential-OYO-2020/2029-average,partial,dryer;fridge;washer,,YES,-43.4967917,172.607626
6/17 BRAKE STREET,UPPER RICCARTON,CHRISTCHURCH,8041.0,Unit,1.0,1.0,,,,,30.0,1975.0,320.0,9/04/2025,8.0,Whittle Knight Real Estate Agents,285000.0,143000.0,142000.0,1/08/2022,Single Unit excluding Bach,Central City Guest Accommodation,Inside,No appreciable view,Steel/G-Iron,Concrete,Residential-OYO-1970's-average,partial,fridge;microwave;washing machine,No,NO,-43.5301686,172.5710497
4/17 BRAKE STREET,UPPER RICCARTON,CHRISTCHURCH,8041.0,Unit,1.0,1.0,,,,,30.0,1975.0,400.0,20/08/2025,97.0,Superior Property Management Limited,285000.0,143000.0,142000.0,1/08/2022,Single Unit excluding Bach,Central City Guest Accommodation,Inside,No appreciable view,Steel/G-Iron,Concrete,Residential-OYO-1970's-average,Fully Furnished,,,NO,-43.5301992,172.5711478
1/80 MILTON STREET,SOMERFIELD,CHRISTCHURCH,8024.0,Townhouse,2.0,1.0,1.0,,1.0,99.0,36.0,2022.0,625.0,1/05/2025,7.0,Myrent.Co.NZ Ltd,570000.0,190000.0,380000.0,1/08/2022,Single Unit excluding Bach,Residential Suburban Density Transition,Corner,No appreciable view,Steel/G-Iron,Mix.Material,Residential-OYO-2020/2029-average,Fully Furnished,,Pets OK,YES,-43.5554891,172.6251496
2/17 WINCHESTER STREET,MERIVALE,CHRISTCHURCH,8014.0,Townhouse,1.0,1.0,,,,78.0,36.0,2025.0,430.0,1/04/2025,8.0,Holmwood Property Management - St Albans,500000.0,310000.0,190000.0,1/08/2022,Single Unit excluding Bach,Residential Medium Density,Rear,No appreciable view,Steel/G-Iron,Mix.Material,Residential-OYO-2020/2029-average,nill,,No,NO,-43.519511,172.6207686
4/17 WINCHESTER STREET,MERIVALE,CHRISTCHURCH,8014.0,Townhouse,1.0,1.0,,,,76.0,36.0,2025.0,450.0,20/03/2025,3.0,Harcourts Asset Managers,500000.0,310000.0,190000.0,1/08/2022,Single Unit excluding Bach,Residential Medium Density,Rear,No appreciable view,Steel/G-Iron,Mix.Material,Residential-OYO-2020/2029-average,Fully Furnished,,,NO,-43.5194471,172.620712
5/17 WINCHESTER STREET,MERIVALE,CHRISTCHURCH,8014.0,Townhouse,1.0,1.0,,,,75.0,36.0,2025.0,450.0,10/04/2025,8.0,-,500000.0,310000.0,190000.0,1/08/2022,Single Unit excluding Bach,Residential Medium Density,Inside,No appreciable view,Steel/G-Iron,Mix.Material,Residential-OYO-2020/2029-average,Fully Furnished,,,NO,-43.5194164,172.6206711
28/10 REX STREET,RICCARTON,CHRISTCHURCH,8041.0,Townhouse,2.0,1.0,,,,,40.0,2016.0,430.0,9/07/2025,24.0,Iron Bridge Property Management - Christchurch,475000.0,200000.0,275000.0,1/08/2022,Single Unit excluding Bach,Central City Guest Accommodation,Inside,No appreciable view,Steel/G-Iron,"Roughcast,etc",Residential-OYO-2010/2019-average,nill,,,NO,-43.5365606,172.5947193
2/33 WAIPAPA AVENUE,DIAMOND HARBOUR,DIAMOND HARBOUR,8972.0,Unit,1.0,1.0,,,,,40.0,1975.0,395.0,11/08/2025,30.0,Bayleys Property Management Ltd,370000.0,255000.0,115000.0,1/08/2022,Single Unit excluding Bach,Residential Banks Peninsula,Inside,No appreciable view,Tile Profile,Fibre Cement,Residential-OYO-1970's-average,,,,NO,-43.6292077,172.7392193
2/120 OSBORNE STREET,WALTHAM,CHRISTCHURCH,8011.0,,1.0,1.0,,1.0,1.0,,40.0,1990.0,400.0,4/09/2025,7.0,"Cowdy, (Licensed: Reaa 2008)",360000.0,185000.0,175000.0,1/08/2022,Single Unit excluding Bach,Residential Suburban Density Transition,Inside,No appreciable view,Steel/G-Iron,Steel/G-Iron,Residential-Dwelling-1990's-poor,partial,washing machine,,NO,-43.5422435,172.662304
5/459 MADRAS STREET,ST ALBANS,CHRISTCHURCH,8014.0,Unit,1.0,1.0,,,,,40.0,1975.0,420.0,21/02/2025,7.0,Myrent.Co.NZ Ltd,320000.0,230000.0,90000.0,1/08/2022,Single Unit excluding Bach,Residential Medium Density,Inside,No appreciable view,Steel/G-Iron,Concrete,Residential-OYO-1970's-poor,partial,fridge;fridge/freezer;washing machine,,NO,-43.518193,172.642099
3/106 NURSERY ROAD,PHILLIPSTOWN,CHRISTCHURCH,8011.0,Unit,1.0,1.0,,,,,40.0,1975.0,320.0,20/02/2025,22.0,Real Property Management Limited,265000.0,110000.0,155000.0,1/08/2022,Single Unit excluding Bach,Residential Medium Density,Inside,No appreciable view,Steel/G-Iron,Mix.Material,Residential-OYO-1970's-average,partial,fridge;fridge/freezer,No,NO,-43.5344134,172.6584598
5/106 NURSERY ROAD,PHILLIPSTOWN,CHRISTCHURCH,8011.0,Unit,1.0,1.0,,,,,40.0,1975.0,375.0,16/01/2025,7.0,Real Property Management Ltd,265000.0,110000.0,155000.0,1/08/2022,Single Unit excluding Bach,Residential Medium Density,Inside,No appreciable view,Steel/G-Iron,Mix.Material,Residential-OYO-1970's-average,nill,,,NO,-43.5343837,172.6585559
6/481 BARBADOES STREET,EDGEWARE,CHRISTCHURCH,8013.0,Unit,1.0,1.0,,,,,40.0,1970.0,410.0,6/05/2025,8.0,Prestige Property Management Ltd,265000.0,180000.0,85000.0,1/08/2022,Single Unit excluding Bach,Residential Medium Density,Inside,No appreciable view,Steel/G-Iron,"Roughcast,etc",Residential-OYO-1970's-average,partial,washing machine,,NO,-43.5176907,172.645581
2/481 BARBADOES STREET,EDGEWARE,CHRISTCHURCH,8013.0,Unit,1.0,1.0,,,,,40.0,1970.0,400.0,26/05/2025,7.0,Prestige Property Management Ltd,255000.0,170000.0,85000.0,1/08/2022,Single Unit excluding Bach,Residential Medium Density,Inside,No appreciable view,Steel/G-Iron,"Roughcast,etc",Residential-OYO-1970's-average,partial,washing machine,,NO,-43.5176681,172.6456439
101/17 WINCHESTER STREET,MERIVALE,CHRISTCHURCH,8014.0,Apartment,1.0,1.0,,,,87.0,43.0,2025.0,440.0,28/04/2025,22.0,Holmwood Property Management St Albans,470000.0,280000.0,190000.0,1/08/2022,Single Unit excluding Bach,Residential Medium Density,Rear,No appreciable view,Steel/G-Iron,Mix.Material,Residential-Apartment-2020/2029-average,partial,fridge;microwave;washing machine,No,NO,-43.5194693,172.6208376
41 JUTLAND STREET,NORTH NEW BRIGHTON,CHRISTCHURCH,8083.0,House,1.0,1.0,,1.0,1.0,506.0,43.0,1935.0,450.0,13/02/2025,36.0,Iron Bridge Chch 01,425000.0,320000.0,105000.0,1/08/2022,Single Unit excluding Bach,Residential Medium Density,Inside,No appreciable view,Steel/G-Iron,"Roughcast,etc",Residential-Dwelling-pre 1914-poor,nill,,,NO,-43.4912359,172.7233958
63 HEYDERS ROAD,SPENCERVILLE,CHRISTCHURCH,8083.0,House,2.0,1.0,,1.0,1.0,809.0,43.0,1950.0,500.0,10/04/2025,8.0,Vision Property Management,400000.0,345000.0,55000.0,1/08/2022,Bach,Residential Small Settlement,Inside,No appreciable view,Steel/G-Iron,Weatherboard,Residential-Dwelling-1950's-poor,nill,,,NO,-43.4308935,172.7008265
77E BORDESLEY STREET,PHILLIPSTOWN,CHRISTCHURCH,8011.0,,1.0,1.0,,,,112.0,44.0,2000.0,370.0,29/08/2025,12.0,Propertyscouts Christchurch Metro,270000.0,130000.0,140000.0,1/08/2022,Single Unit excluding Bach,Residential Medium Density,Inside,No appreciable view,Steel/G-Iron,"Roughcast,etc",Residential-OYO-2000/2009-average,nill,,,NO,-43.5378493,172.663703
11/20 STANMORE ROAD,PHILLIPSTOWN,CHRISTCHURCH,8011.0,Apartment,1.0,1.0,,1.0,1.0,,45.0,2010.0,410.0,19/07/2025,10.0,-,310000.0,130000.0,180000.0,1/08/2022,Single Unit excluding Bach,Residential Medium Density,,No appreciable view,Steel/G-Iron,Mix.Material,Residential-Apartment-2010/2019-average,nill,unfurnished,,NO,-43.5305315,172.6570739
9/20 STANMORE ROAD,PHILLIPSTOWN,CHRISTCHURCH,8011.0,Apartment,1.0,1.0,,1.0,1.0,,45.0,2010.0,420.0,21/02/2025,7.0,Pukeko Rental Managers,280000.0,130000.0,150000.0,1/08/2022,Single Unit excluding Bach,Residential Medium Density,,No appreciable view,Steel/G-Iron,Mix.Material,Residential-Apartment-2010/2019-average,nill,unfurnished,,NO,-43.5305315,172.6570739
12/283 BROUGHAM STREET,SYDENHAM,CHRISTCHURCH,8023.0,Apartment,2.0,1.0,1.0,,1.0,114.0,46.0,2025.0,490.0,2/04/2025,57.0,Iron Bridge Chch 01,465000.0,124000.0,341000.0,1/08/2022,Single Unit excluding Bach,Commercial Local,Inside,No appreciable view,Steel/G-Iron,Mix.Material,Residential-Apartment-2010/2019-average,nill,,,YES,-43.5471822,172.6375628
7/20 STANMORE ROAD,PHILLIPSTOWN,CHRISTCHURCH,8011.0,Apartment,1.0,1.0,,2.0,2.0,75.0,46.0,2025.0,450.0,21/01/2025,5.0,Max Property Management Ltd,350000.0,169166.6667,180833.3333,1/08/2022,Single Unit excluding Bach,Residential Medium Density,.,No appreciable view,Steel/G-Iron,Mix.Material,Residential-Apartment-2010/2019-average,nill,,,NO,-43.5305315,172.6570739
1/20 LEYDEN STREET,PHILLIPSTOWN,CHRISTCHURCH,8011.0,,1.0,1.0,,1.0,1.0,,46.0,2000.0,390.0,4/06/2025,15.0,Rent Wise Property Management,310000.0,155000.0,155000.0,1/08/2022,Single Unit excluding Bach,Residential Medium Density,Inside,No appreciable view,Steel/G-Iron,Mix.Material,Residential-OYO-2000/2009-average,nill,,,NO,-43.5391188,172.6577851
6/20 LEYDEN STREET,PHILLIPSTOWN,CHRISTCHURCH,8011.0,Townhouse,1.0,1.0,,1.0,1.0,,46.0,2000.0,420.0,17/06/2025,7.0,Rent Wise Property Management,310000.0,155000.0,155000.0,1/08/2022,Single Unit excluding Bach,Residential Medium Density,Inside,No appreciable view,Steel/G-Iron,Mix.Material,Residential-OYO-2000/2009-average,nill,,,NO,-43.539145,172.6578549
4/20 LEYDEN STREET,PHILLIPSTOWN,CHRISTCHURCH,8011.0,Townhouse,1.0,1.0,,1.0,1.0,,46.0,2000.0,425.0,5/02/2025,63.0,Rent Wise Property Management,310000.0,155000.0,155000.0,1/08/2022,Single Unit excluding Bach,Residential Medium Density,Inside,No appreciable view,Steel/G-Iron,Mix.Material,Residential-OYO-2000/2009-average,nill,,,NO,-43.5391005,172.6577784
7/20 LEYDEN STREET,PHILLIPSTOWN,CHRISTCHURCH,8011.0,Townhouse,1.0,1.0,,1.0,1.0,,46.0,2000.0,425.0,20/03/2025,7.0,Rent Wise Property Management,310000.0,155000.0,155000.0,1/08/2022,Single Unit excluding Bach,Residential Medium Density,Inside,No appreciable view,Steel/G-Iron,Mix.Material,Residential-OYO-2000/2009-average,nill,,,NO,-43.5391384,172.6578374
3/20 LEYDEN STREET,PHILLIPSTOWN,CHRISTCHURCH,8011.0,Townhouse,1.0,1.0,,1.0,1.0,,46.0,2000.0,425.0,15/04/2025,70.0,Rent Wise Property Management,310000.0,155000.0,155000.0,1/08/2022,Single Unit excluding Bach,Residential Medium Density,Inside,No appreciable view,Steel/G-Iron,Mix.Material,Residential-OYO-2000/2009-average,nill,,,NO,-43.5391516,172.6578723
4/468 CASHEL STREET,LINWOOD,CHRISTCHURCH,8011.0,Apartment,1.0,1.0,,,,,46.0,2011.0,445.0,22/03/2025,7.0,The Good Girls Property Management Ltd,300000.0,140000.0,160000.0,1/08/2022,Single Unit excluding Bach,Residential Medium Density,,No appreciable view,Steel/G-Iron,Concrete,Residential-Apartment-2010/2019-average,Fully Furnished,,,NO,-43.5330904,172.6413919
29 CHURCH LANE,MERIVALE,CHRISTCHURCH,8014.0,Unit,1.0,1.0,,2.0,2.0,71.0,47.0,1935.0,460.0,7/04/2025,3.0,-,500000.0,310000.0,190000.0,1/08/2022,Multi-unit,Central City Guest Accommodation,Inside,No appreciable view,Steel/G-Iron,Weatherboard,Residential-Purpose built flat-1930's-average,Fully Furnished,,,NO,-43.5149785,172.6220346
5/435 MADRAS STREET,ST ALBANS,CHRISTCHURCH,8014.0,Townhouse,1.0,1.0,1.0,,1.0,,48.0,2010.0,450.0,6/04/2025,8.0,Grenadier Rent Shop Limited,470000.0,225000.0,245000.0,1/08/2022,Single Unit excluding Bach,Residential Medium Density,Inside,No appreciable view,Steel/G-Iron,Concrete,Residential-OYO-2010/2019-superior,nill,,,YES,-43.519517,172.6421151
1/21 MONTREAL STREET,SYDENHAM,CHRISTCHURCH,8023.0,Townhouse,1.0,1.0,,1.0,1.0,109.0,49.0,2023.0,460.0,22/08/2025,128.0,Rent Wise Property Management,530000.0,170000.0,360000.0,1/08/2022,Single Unit excluding Bach,Residential Medium Density,Inside,No appreciable view,Steel/G-Iron,Mix.Material,Residential-OYO-2020/2029-average,nill,,,NO,-43.5464858,172.6304563
2/55 MATHESONS ROAD,PHILLIPSTOWN,CHRISTCHURCH,8011.0,Townhouse,2.0,2.0,1.0,,1.0,118.0,50.0,2023.0,550.0,22/05/2025,16.0,Harcourts Asset Managers,580000.0,175000.0,405000.0,1/08/2022,Single Unit excluding Bach,Residential Medium Density,Rear,No appreciable view,Steel/G-Iron,Mix.Material,Residential-OYO-2020/2029-average,partial,fridge;fridge/freezer,,YES,-43.5376354,172.6596296
3/65 COX STREET,MERIVALE,CHRISTCHURCH,8014.0,Unit,2.0,1.0,,1.0,1.0,,50.0,1960.0,450.0,24/07/2025,7.0,Bayleys Property Management Ltd,570000.0,445000.0,125000.0,1/08/2022,Single Unit excluding Bach,Central City Guest Accommodation,Rear,No appreciable view,Tile Profile,Concrete,Residential-OYO-1960's-average,partial,fridge;washing machine,Pets OK,NO,-43.5131927,172.6189652
6/461 MANCHESTER STREET,ST ALBANS,CHRISTCHURCH,8014.0,Townhouse,1.0,1.0,,1.0,1.0,105.0,50.0,2021.0,440.0,30/03/2025,78.0,Harcourts Gold,550000.0,265000.0,285000.0,1/08/2022,Single Unit excluding Bach,Residential Medium Density,Inside,No appreciable view,Steel/G-Iron,Mix.Material,Residential-OYO-2020/2029-average,nill,,,NO,-43.5190702,172.6391239
5/461 MANCHESTER STREET,ST ALBANS,CHRISTCHURCH,8014.0,Townhouse,1.0,1.0,,1.0,1.0,85.0,50.0,2021.0,440.0,27/08/2025,15.0,Harcourts Gold Property Management,540000.0,245000.0,295000.0,1/08/2022,Single Unit excluding Bach,Residential Medium Density,Inside,No appreciable view,Steel/G-Iron,Mix.Material,Residential-OYO-2020/2029-average,nill,,,NO,-43.5190702,172.6391793
2/11 PARLANE STREET,ADDINGTON,CHRISTCHURCH,8024.0,Apartment,1.0,1.0,,3.0,1.0,,50.0,2019.0,400.0,29/01/2025,7.0,-,530000.0,160000.0,370000.0,1/08/2022,Single Unit excluding Bach,Residential Zone D,Inside,No appreciable view,Steel/G-Iron,Mix.Material,Residential-Apartment-2010/2019-average,nill,,,NO,-43.5437582,172.612845
9/130 TANCRED STREET,LINWOOD,CHRISTCHURCH,8062.0,Townhouse,1.0,1.0,1.0,,1.0,107.0,50.0,2024.0,450.0,6/03/2025,7.0,Vvv Property Management,520000.0,200000.0,320000.0,1/08/2022,Single Unit excluding Bach,Residential Suburban Density Transition,Rear,No appreciable view,Steel/G-Iron,Mix.Material,Residential-OYO-2020/2029-average,nill,,,YES,-43.5277157,172.6682168
1/153 HASTINGS STREET EAST,WALTHAM,CHRISTCHURCH,8023.0,Townhouse,2.0,1.0,,1.0,1.0,,50.0,2016.0,430.0,29/05/2025,2.0,Harcourts Gold Property Management,500000.0,195000.0,305000.0,1/08/2022,Single Unit excluding Bach,Residential Medium Density,Inside,No appreciable view,Steel/G-Iron,Mix.Material,Residential-OYO-2010/2019-average,nill,,,NO,-43.5484921,172.6481221
3/153 HASTINGS STREET EAST,WALTHAM,CHRISTCHURCH,8023.0,Townhouse,2.0,1.0,,1.0,1.0,,50.0,2016.0,430.0,18/07/2025,2.0,Harcourts Gold Property Management,500000.0,185000.0,315000.0,1/08/2022,Single Unit excluding Bach,Residential Medium Density,Inside,No appreciable view,Steel/G-Iron,Mix.Material,Residential-OYO-2010/2019-average,nill,,,NO,-43.5484217,172.6481833
4/24 GORDON AVENUE,ST ALBANS,CHRISTCHURCH,8014.0,Unit,1.0,1.0,1.0,,1.0,,50.0,1960.0,400.0,14/05/2025,12.0,-,450000.0,220000.0,230000.0,1/08/2022,Multi-unit,Residential Suburban Density Transition,Rear,No appreciable view,Tile Profile,Concrete,Residential-OYO-1960's-poor,Fully Furnished,,,YES,-43.5123389,172.627994
6/88 BISHOP STREET,ST ALBANS,CHRISTCHURCH,8014.0,Unit,1.0,1.0,,1.0,1.0,,50.0,1985.0,400.0,18/07/2025,7.0,"The Hancock Group, (Licensed: Reaa 2008)",440000.0,245000.0,195000.0,1/08/2022,Single Unit excluding Bach,Residential Medium Density,Inside,No appreciable view,Steel/G-Iron,Brick,Residential-OYO-1980's-average,nill,,,NO,-43.516348,172.641859
24 SCOTT STREET,SYDENHAM,CHRISTCHURCH,8023.0,,2.0,1.0,,,,324.0,50.0,1890.0,585.0,19/02/2025,7.0,-,420000.0,330000.0,90000.0,1/08/2022,Single Unit excluding Bach,Residential Medium Density,Inside,No appreciable view,Steel/G-Iron,Weatherboard,Residential-Dwelling-pre 1914-poor,Fully Furnished,,,NO,-43.5485619,172.6297272
4/39 TOWER STREET,HORNBY,CHRISTCHURCH,8042.0,Unit,2.0,1.0,,1.0,1.0,,50.0,1970.0,395.0,23/01/2025,8.0,Harcourts Asset Managers,375000.0,219000.0,156000.0,1/08/2022,Single Unit excluding Bach,Central City Guest Accommodation,Rear,No appreciable view,Steel/G-Iron,Mix.Material,Residential-OYO-1970's-average,nill,,,NO,-43.5463426,172.5272445
5/46 LONGFELLOW STREET,SYDENHAM,CHRISTCHURCH,8023.0,Unit,2.0,1.0,,,,,50.0,1975.0,395.0,19/06/2025,2.0,"Irelands, (Licensed: Reaa 2008)",375000.0,225000.0,150000.0,1/08/2022,Single Unit excluding Bach,Residential Medium Density,Inside,No appreciable view,Steel/G-Iron,Concrete,Residential-OYO-1970's-average,nill,,Pets OK,NO,-43.5556761,172.6412265
4/43 WHITMORE STREET,EDGEWARE,CHRISTCHURCH,8013.0,Unit,2.0,1.0,,1.0,1.0,,50.0,1975.0,310.0,11/04/2025,7.0,"Braziers Limited, (Licensed: Reaa 2008)",365000.0,215000.0,150000.0,1/08/2022,Single Unit excluding Bach,Residential Medium Density,Inside,No appreciable view,Steel/G-Iron,Concrete,Residential-OYO-1970's-average,,,,NO,-43.5186696,172.6501151
5/4 HENDON STREET,EDGEWARE,CHRISTCHURCH,8013.0,,1.0,1.0,1.0,,1.0,71.0,50.0,2025.0,390.0,27/03/2025,8.0,Irelands,355000.0,125000.0,230000.0,1/08/2022,Single Unit excluding Bach,Residential Suburban Density Transition,Rear,No appreciable view,Steel/G-Iron,Concrete,Residential-OYO-1970's-average,nill,,,YES,-43.5126476,172.648518
3/25 WHITMORE STREET,EDGEWARE,CHRISTCHURCH,8013.0,Unit,2.0,1.0,1.0,,1.0,,50.0,1975.0,450.0,29/04/2025,176.0,Vision Property Management,355000.0,170000.0,185000.0,1/08/2022,Single Unit excluding Bach,Residential Medium Density,Inside,No appreciable view,Steel/G-Iron,Concrete,Residential-OYO-1970's-average,nill,,,YES,-43.5195913,172.6501445
5/73 CLARE ROAD,ST ALBANS,CHRISTCHURCH,8014.0,Unit,2.0,1.0,,1.0,,,50.0,1975.0,430.0,30/01/2025,22.0,Orbit Property Management Ltd,350000.0,141000.0,209000.0,1/08/2022,Single Unit excluding Bach,Residential Medium Density,Inside,No appreciable view,Steel/G-Iron,Concrete,Residential-OYO-1970's-average,nill,,,NO,-43.5179381,172.6313609
4/73 CLARE ROAD,ST ALBANS,CHRISTCHURCH,8014.0,Unit,2.0,1.0,,1.0,1.0,,50.0,1970.0,430.0,22/08/2025,454.0,Real Property Management Ltd,350000.0,141000.0,209000.0,1/08/2022,Single Unit excluding Bach,Residential Medium Density,Rear,No appreciable view,Steel/G-Iron,Concrete,Residential-OYO-1970's-average,partial,washing machine,,NO,-43.5179391,172.6314242
4/354 HEREFORD STREET,LINWOOD,CHRISTCHURCH,8011.0,Unit,2.0,1.0,1.0,,1.0,,50.0,1975.0,425.0,12/08/2025,29.0,The Good Girls Property Management Ltd,330000.0,130000.0,200000.0,1/08/2022,Single Unit excluding Bach,Residential Medium Density,Inside,No appreciable view,Steel/G-Iron,Concrete,Residential-OYO-1970's-average,nill,,,YES,-43.5322838,172.651899
7/73 CLARE ROAD,ST ALBANS,CHRISTCHURCH,8014.0,,1.0,1.0,,1.0,1.0,71.0,50.0,2025.0,395.0,31/08/2025,10.0,Prestige Property Management Limited,320000.0,141000.0,179000.0,1/08/2022,Single Unit excluding Bach,Residential Medium Density,Rear,No appreciable view,Steel/G-Iron,Concrete,Residential-OYO-1970's-average,partial,washing machine,No,NO,-43.5179863,172.6312597
1/459 WORCESTER STREET,LINWOOD,CHRISTCHURCH,8011.0,Unit,2.0,1.0,,1.0,1.0,,50.0,1975.0,465.0,3/04/2025,31.0,Wolfbrook Property Management,320000.0,235000.0,85000.0,1/08/2022,Single Unit excluding Bach,Residential Medium Density,Inside,No appreciable view,Tile Profile,"Roughcast,etc",Residential-OYO-1970's-average,partial,dryer;fridge;washing machine,,NO,-43.5307395,172.6611864
2/50 VANCOUVER CRESCENT,WAINONI,CHRISTCHURCH,8061.0,,1.0,1.0,,1.0,1.0,71.0,50.0,2025.0,450.0,16/06/2025,11.0,-,300000.0,215000.0,85000.0,1/08/2022,Single Unit excluding Bach,Residential Suburban,Inside,No appreciable view,Steel/G-Iron,Aluminium,Residential-OYO-1970's-average,nill,,,NO,-43.5209959,172.6908054
2/527 CASHEL STREET,LINWOOD,CHRISTCHURCH,8011.0,Unit,2.0,1.0,1.0,,1.0,,50.0,1915.0,425.0,28/07/2025,39.0,Quinovic Riccarton,300000.0,190000.0,110000.0,1/08/2022,Single Unit excluding Bach,Residential Medium Density,Inside,No appreciable view,Steel/G-Iron,Concrete,Residential-OYO-1914/1929-average,nill,,,YES,-43.532606,172.663119
6/93 RACECOURSE ROAD,SOCKBURN,CHRISTCHURCH,8042.0,Unit,2.0,1.0,,1.0,1.0,,50.0,1975.0,360.0,1/07/2025,7.0,Bayleys Property Management Ltd,290000.0,114000.0,176000.0,1/08/2022,Single Unit excluding Bach,Residential Suburban,Inside,No appreciable view,Steel/G-Iron,Concrete,Residential-OYO-1970's-average,nill,,,NO,-43.5296822,172.5514032
2/371 HEREFORD STREET,LINWOOD,CHRISTCHURCH,8011.0,,1.0,1.0,1.0,,1.0,71.0,50.0,2025.0,390.0,13/06/2025,7.0,"Glass Miles Ltd, (Licensed: Reaa 2008)",230000.0,130000.0,100000.0,1/08/2022,Single Unit excluding Bach,Residential Medium Density,Inside,No appreciable view,Steel/G-Iron,Concrete,Residential-OYO-1970's-average,nill,,,YES,-43.5317729,172.6533376
1/71 RANFURLY STREET,ST ALBANS,CHRISTCHURCH,8014.0,,1.0,1.0,1.0,,1.0,,50.0,1970.0,400.0,16/08/2025,7.0,-,,,0.0,1/08/2022,Multi-unit,Residential Zone B,,No appreciable view,Fibre Cement,Mix.Material,Residential-Purpose built flat-1960's-average,nill,,,YES,-43.5146201,172.6320804
8 KINLEYS LANE,ST ALBANS,CHRISTCHURCH,8014.0,Unit,1.0,1.0,,2.0,2.0,71.0,50.5,1950.0,440.0,10/02/2025,7.0,-,570000.0,410735.2941,159264.7059,1/08/2022,Multi-unit,Residential Suburban Density Transition,Inside,No appreciable view,Tile Profile,Brick,Residential-OYO-1950's-average,partial,fridge,No,NO,-43.5117782,172.6281406
1/41 ONSLOW STREET,ST ALBANS,CHRISTCHURCH,8014.0,Unit,1.0,1.0,,4.0,4.0,71.0,50.5,1960.0,375.0,29/05/2025,15.0,"Braziers Limited, (Licensed: Reaa 2008)",470000.0,230300.0,239700.0,1/08/2022,Multi-unit,Residential Medium Density,Inside,No appreciable view,Tile Profile,Concrete,Residential-Purpose built flat-1960's-average,partial,fridge;washing machine,Pets OK,NO,-43.5180393,172.6274542
1054 COLOMBO STREET,ST ALBANS,CHRISTCHURCH,8014.0,Unit,1.0,1.0,,,,71.0,50.5,1985.0,385.0,17/05/2025,71.0,"Braziers Limited, (Licensed: Reaa 2008)",470000.0,230300.0,239700.0,1/08/2022,Multi-unit,Residential Zone D,Inside,No appreciable view,Steel/G-Iron,Concrete,Residential-Purpose built flat-1980's-average,nill,,No,NO,-43.5144386,172.6367842
2/46 ABBERLEY CRESCENT,ST ALBANS,CHRISTCHURCH,8014.0,,1.0,1.0,,1.0,1.0,71.0,50.5,2025.0,450.0,9/06/2025,34.0,Rent Right Property Management Ltd,470000.0,333768.1159,136231.8841,1/08/2022,Single Unit excluding Bach,Residential Suburban Density Transition,Inside,No appreciable view,Steel/G-Iron,Concrete,Residential-OYO-1970's-average,nill,,,NO,-43.5128369,172.6301039
17 SHERBORNE STREET,ST ALBANS,CHRISTCHURCH,8014.0,,1.0,1.0,,1.0,6.0,75.0,51.0,2019.0,465.0,25/06/2025,34.0,"Agnes White & Associates Mreinz, (Licensed: Reaa 2008)",540000.0,282735.8491,257264.1509,1/08/2022,Multi-unit,Residential Medium Density,Inside,No appreciable view,Steel/G-Iron,Weatherboard,Residential-Multiple Dwellings-2010/2019-average,partial,fridge;fridge/freezer;washing machine,,NO,-43.5198995,172.6379242
71A GERALDINE STREET,EDGEWARE,CHRISTCHURCH,8013.0,Townhouse,1.0,1.0,1.0,,1.0,139.0,51.0,2021.0,420.0,25/08/2025,16.0,-,485000.0,205000.0,280000.0,1/08/2022,Single Unit excluding Bach,Residential Medium Density,Inside,No appreciable view,Steel/G-Iron,Mix.Material,Residential-OYO-2020/2029-average,,,,YES,-43.5172012,172.6472171
5 WHARENUI ROAD,UPPER RICCARTON,CHRISTCHURCH,8041.0,,1.0,1.0,,1.0,3.0,75.0,51.0,2010.0,300.0,23/06/2025,2490.0,Sunshine Housing Ltd,473750.0,235195.0355,238554.9645,1/08/2022,Multi-use within Residential,Residential Suburban Density Transition,Inside,No appreciable view,Steel/G-Iron,Mix.Material,Residential-Home & Income-2010/2019-average,Fully Furnished,,No,NO,-43.5315485,172.5864974
4/35 BUFFON STREET,WALTHAM,CHRISTCHURCH,8023.0,Townhouse,1.0,1.0,,1.0,1.0,50.0,51.0,2022.0,410.0,10/07/2025,16.0,Metro Advances Limited,470000.0,130000.0,340000.0,1/08/2022,Single Unit excluding Bach,Residential Medium Density,Rear,No appreciable view,Steel/G-Iron,Mix.Material,Residential-OYO-2020/2029-average,nill,unfurnished,No,NO,-43.5499887,172.6509437
5/11 EXETER STREET,MERIVALE,CHRISTCHURCH,8014.0,Townhouse,1.0,1.0,,1.0,1.0,,51.0,2010.0,430.0,27/01/2025,7.0,Rent Right Property Management Ltd,470000.0,285000.0,185000.0,1/08/2022,Single Unit excluding Bach,Residential Medium Density,Inside,No appreciable view,Steel/G-Iron,Mix.Material,Residential-OYO-2010/2019-average,partial,dryer;washer;washer/dryer,,NO,-43.5208583,172.622063
7/9 SHERBORNE STREET,ST ALBANS,CHRISTCHURCH,8014.0,Unit,1.0,1.0,1.0,,1.0,,51.0,1970.0,440.0,17/04/2025,7.0,"Irelands, (Licensed: Reaa 2008)",440000.0,185000.0,255000.0,1/08/2022,Single Unit excluding Bach,Residential Medium Density,Rear,No appreciable view,Steel/G-Iron,Concrete,Residential-OYO-1970's-average,partial,fridge;washing machine,,YES,-43.5202198,172.6371708
5/9 SHERBORNE STREET,ST ALBANS,CHRISTCHURCH,8014.0,Unit,2.0,1.0,1.0,,1.0,,51.0,1970.0,520.0,9/05/2025,3.0,Realtunity Property Management,440000.0,185000.0,255000.0,1/08/2022,Single Unit excluding Bach,Residential Medium Density,Rear,No appreciable view,Steel/G-Iron,Concrete,Residential-OYO-1970's-average,Fully Furnished,,,YES,-43.5202193,172.6372695
2/21 STUDHOLME STREET,SOMERFIELD,CHRISTCHURCH,8024.0,,1.0,1.0,,1.0,1.0,,51.0,1980.0,485.0,16/05/2025,7.0,The Good Girls Property Management Ltd,430000.0,270000.0,160000.0,1/08/2022,Single Unit excluding Bach,Residential Suburban Density Transition,Rear,No appreciable view,Steel/G-Iron,Steel/G-Iron,Residential-Dwelling-1980's-poor,,,,NO,-43.5613874,172.6298236
15 KYLE STREET,RICCARTON,CHRISTCHURCH,8011.0,,1.0,0.0,2.0,,0.0,75.0,51.0,2010.0,250.0,4/07/2025,25.0,The Good Girls Property Management Ltd,410000.0,242763.1579,167236.8421,1/08/2022,Multi-unit,Central City Guest Accommodation,Inside,No appreciable view,Steel/G-Iron,Brick,Residential-Purpose built flat-2010/2019-average,nill,,,YES,-43.5320535,172.607994
40 GUILD STREET,RICHMOND,CHRISTCHURCH,8013.0,,1.0,1.0,6.0,,6.0,75.0,51.0,2021.0,330.0,28/02/2025,7.0,Shelleys Property Management,410000.0,220298.5075,189701.4925,1/08/2022,Multi-unit,Residential Suburban Density Transition,Inside,No appreciable view,Malthoid/Fab,Malthoid/Fab,Residential-Multiple Dwellings-Mixed Age-average,nill,,,YES,-43.5127678,172.6546786
3/11 DIVISION STREET,RICCARTON,CHRISTCHURCH,8041.0,,1.0,1.0,1.0,,1.0,75.0,51.0,2025.0,450.0,14/07/2025,7.0,Orbit Property Management,410000.0,325000.0,85000.0,1/08/2022,Single Unit excluding Bach,Central City Guest Accommodation,Rear,No appreciable view,Steel/G-Iron,Concrete,Residential-OYO-1970's-poor,nill,,,YES,-43.536219,172.599185
31/31 POULSON STREET,ADDINGTON,CHRISTCHURCH,8024.0,,1.0,0.0,1.0,,0.0,75.0,51.0,2000.0,250.0,14/07/2025,383.0,-,377500.0,175000.0,155000.0,1/08/2022,Single Unit excluding Bach,Residential Zone D,Inside,No appreciable view,Steel/G-Iron,Concrete,Residential-OYO-2000/2009-average,partial,dryer;fridge;microwave;washer,,YES,-43.5438862,172.6143578
484 ARMAGH STREET,LINWOOD,CHRISTCHURCH,8011.0,,1.0,0.0,,,0.0,75.0,51.0,2015.0,250.0,21/05/2025,7.0,-,377500.0,175000.0,155000.0,1/08/2022,Single Unit excluding Bach,Residential Medium Density,Inside,No appreciable view,Steel/G-Iron,Weatherboard,Residential-Dwelling-2010/2019-average,Fully Furnished,,,NO,-43.5286582,172.6586411
1013 COLOMBO STREET,ST ALBANS,CHRISTCHURCH,8014.0,,1.0,0.0,,2.0,0.0,75.0,51.0,1905.0,250.0,21/05/2025,24.0,The Property Boss Limited,377500.0,175000.0,155000.0,1/08/2022,Multi-unit,Residential Medium Density,Inside,No appreciable view,Steel/G-Iron,Mix.Material,Residential-Vacant Flat Land,Fully Furnished,,,NO,-43.5162853,172.6363566
77 BIRDWOOD AVENUE,BECKENHAM,CHRISTCHURCH,8023.0,,1.0,0.0,,1.0,0.0,75.0,51.0,1920.0,250.0,12/06/2025,7.0,-,377500.0,175000.0,155000.0,1/08/2022,Single Unit excluding Bach,Residential Suburban,Inside,No appreciable view,Tile Profile,"Roughcast,etc",Residential-Dwelling-1914/1929-average,,,,NO,-43.5666174,172.6424973
158A PEVEREL STREET,RICCARTON,CHRISTCHURCH,8041.0,,1.0,0.0,2.0,,0.0,75.0,51.0,2000.0,250.0,18/07/2025,7.0,Quinovic Merivale,377500.0,175000.0,155000.0,1/08/2022,Single Unit excluding Bach,Residential Suburban Density Transition,Rear,No appreciable view,Tile Profile,Brick,Residential-Dwelling-2000/2009-average,nill,,,YES,-43.5337426,172.5882999
3A PAEROA STREET,RICCARTON,CHRISTCHURCH,8041.0,,1.0,0.0,,,0.0,75.0,51.0,2010.0,250.0,21/07/2025,7.0,The Good Girls Property Management Ltd,377500.0,175000.0,155000.0,1/08/2022,Single Unit excluding Bach,Residential Suburban Density Transition,,No appreciable view,Steel/G-Iron,Brick,Residential-Dwelling-2010/2019-average,Fully Furnished,,,NO,-43.5328724,172.588624
76B PEER STREET,UPPER RICCARTON,CHRISTCHURCH,8041.0,,1.0,0.0,,,0.0,75.0,51.0,2014.0,260.0,16/01/2025,7.0,Bayleys Property Management Ltd,377500.0,175000.0,155000.0,1/08/2022,Single Unit excluding Bach,Residential Zone D,Inside,No appreciable view,Steel/G-Iron,Mix.Material,Residential-Dwelling-2010/2019-average,nill,,,NO,-43.5256656,172.5714868
41C AVONHEAD ROAD,AVONHEAD,CHRISTCHURCH,8042.0,,1.0,0.0,2.0,,0.0,75.0,51.0,2016.0,260.0,26/05/2025,7.0,Sunshine Housing Ltd,377500.0,175000.0,155000.0,1/08/2022,Single Unit excluding Bach,Residential Suburban,Inside,No appreciable view,Steel/G-Iron,Mix.Material,Residential-Dwelling-2010/2019-average,Fully Furnished,,No,YES,-43.5248639,172.5593714
31 EUSTON STREET,RICCARTON,CHRISTCHURCH,8041.0,,1.0,0.0,1.0,1.0,0.0,75.0,51.0,2016.0,260.0,17/06/2025,38.0,-,377500.0,175000.0,155000.0,1/08/2022,Single Unit excluding Bach,Residential Suburban Density Transition,Inside,No appreciable view,Steel/G-Iron,Weatherboard,Residential-Dwelling-2010/2019-average,Fully Furnished,,,YES,-43.5318694,172.5869131
17 SUFFOLK STREET,PHILLIPSTOWN,CHRISTCHURCH,8011.0,,1.0,0.0,,1.0,0.0,75.0,51.0,2015.0,260.0,16/08/2025,25.0,The Good Girls Property Management Ltd,377500.0,175000.0,155000.0,1/08/2022,Single Unit excluding Bach,Residential Medium Density,Inside,No appreciable view,Steel/G-Iron,Weatherboard,Residential-OYO-1930's-poor,Fully Furnished,,Pets OK,NO,-43.5344766,172.6608427
137 WAIMAIRI ROAD,ILAM,CHRISTCHURCH,8041.0,,1.0,0.0,2.0,,0.0,75.0,51.0,2010.0,270.0,23/07/2025,128.0,Fraser Flynn Property Management,377500.0,175000.0,155000.0,1/08/2022,Single Unit excluding Bach,Residential Suburban Density Transition,Rear,No appreciable view,Tile Profile,Mix.Material,Residential-Dwelling-2010/2019-average,nill,,,YES,-43.5212006,172.5721732
156 DUNBARS ROAD,HALSWELL,CHRISTCHURCH,8025.0,,1.0,0.0,,2.0,0.0,75.0,51.0,2015.0,270.0,7/09/2025,3.0,-,377500.0,175000.0,155000.0,1/08/2022,Single Unit excluding Bach,Residential Suburban,Inside,No appreciable view,Tile Profile,"Roughcast,etc",Residential-Dwelling-2010/2019-average,partial,fridge,,NO,-43.5665767,172.5583579
7A HUIA STREET,RICCARTON,CHRISTCHURCH,8041.0,,1.0,0.0,,,0.0,75.0,51.0,2021.0,275.0,5/03/2025,7.0,Chch Room Rentals,377500.0,175000.0,155000.0,1/08/2022,Single Unit excluding Bach,Residential Suburban Density Transition,Inside,No appreciable view,Steel/G-Iron,Brick,Residential-Dwelling-2020/2029-average,Fully Furnished,,No,NO,-43.5344621,172.5921935
15A HOOKER AVENUE,BRYNDWR,CHRISTCHURCH,8053.0,,1.0,0.0,2.0,,0.0,75.0,51.0,2023.0,275.0,12/06/2025,23.0,-,377500.0,175000.0,155000.0,1/08/2022,Single Unit excluding Bach,Residential Suburban,Rear,No appreciable view,Steel/G-Iron,Brick,Residential-Dwelling-2020/2029-average,Fully Furnished,,,YES,-43.5035846,172.5870346
81 CONDELL AVENUE,PAPANUI,CHRISTCHURCH,8053.0,,1.0,0.0,,2.0,0.0,75.0,51.0,1930.0,275.0,24/08/2025,112.0,-,377500.0,175000.0,155000.0,1/08/2022,Single Unit excluding Bach,Residential Suburban,Inside,No appreciable view,Tile Profile,Weatherboard,Residential-Dwelling-1930's-average,partial,fridge;microwave;washing machine,No,NO,-43.500565,172.6004692
20/17 BUNYAN STREET,WALTHAM,CHRISTCHURCH,8023.0,,1.0,0.0,,,0.0,75.0,51.0,2016.0,280.0,6/02/2025,7.0,Quinovic Merivale,377500.0,175000.0,155000.0,1/08/2022,Single Unit excluding Bach,Residential Medium Density,Inside,No appreciable view,Steel/G-Iron,Mix.Material,Residential-OYO-2010/2019-average,Fully Furnished,,,NO,-43.5505556,172.6485928
42B MAXWELL STREET,RICCARTON,CHRISTCHURCH,8041.0,,1.0,0.0,,,0.0,75.0,51.0,2007.0,280.0,9/05/2025,7.0,-,377500.0,175000.0,155000.0,1/08/2022,Single Unit excluding Bach,Central City Guest Accommodation,Rear,No appreciable view,Steel/G-Iron,Mix.Material,Residential-Dwelling-2000/2009-average,nill,,,NO,-43.5320826,172.5943666
138A SOUTHAMPTON STREET,SYDENHAM,CHRISTCHURCH,8023.0,,1.0,0.0,1.0,,0.0,75.0,51.0,2010.0,280.0,26/05/2025,7.0,Sunshine Housing Ltd,377500.0,175000.0,155000.0,1/08/2022,Single Unit excluding Bach,Residential Medium Density,,No appreciable view,Steel/G-Iron,Mix.Material,Residential-Dwelling-2010/2019-average,Fully Furnished,,,YES,-43.5561749,172.6434439
33/17 BUNYAN STREET,WALTHAM,CHRISTCHURCH,8023.0,,1.0,0.0,,,0.0,75.0,51.0,2016.0,280.0,28/07/2025,64.0,Quinovic Merivale,377500.0,175000.0,155000.0,1/08/2022,Single Unit excluding Bach,Residential Medium Density,Inside,No appreciable view,Steel/G-Iron,Mix.Material,Residential-OYO-2010/2019-average,Fully Furnished,,,NO,-43.5505698,172.6482563
33B WAIMAIRI ROAD,UPPER RICCARTON,CHRISTCHURCH,8041.0,Unit,1.0,0.0,1.0,,0.0,75.0,51.0,1975.0,280.0,25/08/2025,22.0,Trust Living Investment Limited,377500.0,175000.0,155000.0,1/08/2022,Single Unit excluding Bach,Central City Guest Accommodation,Inside,No appreciable view,Tile Profile,Concrete,Residential-OYO-1970's-average,,,,YES,-43.5287653,172.5735525
16A TRUMAN ROAD,BRYNDWR,CHRISTCHURCH,8053.0,,1.0,0.0,1.0,,0.0,75.0,51.0,2015.0,280.0,1/09/2025,15.0,Fraser Flynn Property Management,377500.0,175000.0,155000.0,1/08/2022,Single Unit excluding Bach,Residential Suburban,Rear,No appreciable view,Mix.Material,Mix.Material,Residential-Dwelling-2010/2019-average,nill,,,YES,-43.5074237,172.5841903
26A WAYSIDE AVENUE,BURNSIDE,CHRISTCHURCH,8053.0,,1.0,0.0,2.0,,0.0,75.0,51.0,2000.0,285.0,26/07/2025,7.0,-,377500.0,175000.0,155000.0,1/08/2022,Single Unit excluding Bach,Residential Suburban,Rear,No appreciable view,Steel/G-Iron,Brick,Residential-Dwelling-2000/2009-average,partial,fridge;microwave;washing machine,No,YES,-43.5031332,172.5809124
71 STANMORE ROAD,LINWOOD,CHRISTCHURCH,8011.0,Unit,1.0,0.0,,2.0,0.0,75.0,51.0,1905.0,285.0,19/05/2025,16.0,"Braziers Limited, (Licensed: Reaa 2008)",377500.0,175000.0,155000.0,1/08/2022,Multi-unit,Residential Zone D,Inside,No appreciable view,Steel/G-Iron,Weatherboard,Residential-Converted Flat-pre 1914-average,partial,fridge,No,NO,-43.5317025,172.6568255
13 BATEMAN AVENUE,BRYNDWR,CHRISTCHURCH,8053.0,,1.0,0.0,,1.0,0.0,75.0,51.0,1940.0,290.0,16/01/2025,7.0,-,377500.0,175000.0,155000.0,1/08/2022,Single Unit excluding Bach,Residential Zone D,Inside,No appreciable view,Tile Profile,Aluminium,Residential-Dwelling-1940's-average,nill,,,NO,-43.5073509,172.5909004
19/17 BUNYAN STREET,WALTHAM,CHRISTCHURCH,8023.0,,1.0,0.0,,,0.0,75.0,51.0,2016.0,290.0,9/04/2025,7.0,Quinovic Merivale,377500.0,175000.0,155000.0,1/08/2022,Single Unit excluding Bach,Residential Medium Density,Inside,No appreciable view,Steel/G-Iron,Mix.Material,Residential-OYO-2010/2019-average,Fully Furnished,,,NO,-43.5505983,172.6485786
7A LAURENCE STREET,WALTHAM,CHRISTCHURCH,8011.0,,1.0,0.0,,,0.0,75.0,51.0,2017.0,290.0,18/06/2025,1823.0,"Harcourts Four Seasons Realty 2017 Ltd Rangiora, (Licensed: Reaa 2008)",377500.0,175000.0,155000.0,1/08/2022,Single Unit excluding Bach,Residential Medium Density,Rear,No appreciable view,Steel/G-Iron,"Roughcast,etc",Residential-Dwelling-2010/2019-average,partial,dryer;fridge;microwave;washing machine,,NO,-43.5442236,172.6586329
354 RIVERLAW TERRACE,SAINT MARTINS,CHRISTCHURCH,8022.0,,1.0,0.0,,1.0,0.0,75.0,51.0,1940.0,290.0,23/06/2025,7.0,-,377500.0,175000.0,155000.0,1/08/2022,Single Unit excluding Bach,Residential Suburban,Inside,Focal Point Of view - Other,Tile Profile,Weatherboard,Residential-Dwelling-1940's-average,Fully Furnished,,,NO,-43.5626027,172.6593598
109 UNION STREET,NEW BRIGHTON,CHRISTCHURCH,8061.0,,1.0,0.0,,1.0,0.0,75.0,51.0,1910.0,290.0,23/07/2025,7.0,-,377500.0,175000.0,155000.0,1/08/2022,Single Unit excluding Bach,Residential Suburban,Inside,Focal Point Of view - Other,Steel/G-Iron,"Roughcast,etc",Residential-Dwelling-1914/1929-average,partial,washing machine,,NO,-43.5136162,172.7299182
1/68 BORDESLEY STREET,PHILLIPSTOWN,CHRISTCHURCH,8011.0,,1.0,0.0,,,0.0,75.0,51.0,2019.0,290.0,26/07/2025,140.0,-,377500.0,175000.0,155000.0,1/08/2022,Single Unit excluding Bach,Residential Suburban Density Transition,Inside,No appreciable view,Steel/G-Iron,"Roughcast,etc",Residential-Dwelling-2010/2019-average,Fully Furnished,,,NO,-43.5386667,172.6639333
42 NEWNHAM TERRACE,UPPER RICCARTON,CHRISTCHURCH,8041.0,,1.0,0.0,,,0.0,75.0,51.0,2013.0,290.0,7/08/2025,358.0,Sunshine Housing Ltd,377500.0,175000.0,155000.0,1/08/2022,Single Unit excluding Bach,Central City Guest Accommodation,Inside,No appreciable view,Steel/G-Iron,Mix.Material,Residential-Dwelling-2010/2019-average,Fully Furnished,,,NO,-43.5288516,172.5769107
24 MOANA STREET,SOMERFIELD,CHRISTCHURCH,8024.0,,1.0,0.0,1.0,,0.0,75.0,51.0,1930.0,295.0,29/06/2025,7.0,-,377500.0,175000.0,155000.0,1/08/2022,Single Unit excluding Bach,Residential Suburban,Corner,No appreciable view,Steel/G-Iron,Weatherboard,Residential-Dwelling-1930's-average,partial,fridge;fridge/freezer;washing machine,,YES,-43.5644169,172.6290385
76A HASTINGS STREET WEST,SYDENHAM,CHRISTCHURCH,8023.0,,1.0,0.0,,2.0,0.0,75.0,51.0,1910.0,295.0,2/08/2025,39.0,Myrent.Co.NZ Ltd,377500.0,175000.0,155000.0,1/08/2022,Multi-unit,Central City Guest Accommodation,Inside,No appreciable view,Steel/G-Iron,"Roughcast,etc",Residential-Vacant Flat Land,Fully Furnished,,,NO,-43.5486411,172.641916
477 BARRINGTON STREET,ADDINGTON,CHRISTCHURCH,8024.0,,1.0,0.0,,2.0,0.0,75.0,51.0,1910.0,295.0,4/08/2025,182.0,"Diane Astle Realty Ltd, (Licensed: Reaa 2008)",377500.0,175000.0,155000.0,1/08/2022,Single Unit excluding Bach,Residential Zone D,Inside,No appreciable view,Stone,Weatherboard,Residential-Dwelling-1914/1929-average,nill,,,NO,-43.5461148,172.6094422
23 HILLARY CRESCENT,UPPER RICCARTON,CHRISTCHURCH,8041.0,,1.0,0.0,,2.0,0.0,75.0,51.0,1950.0,299.0,4/08/2025,13.0,Fraser Flynn Property Management,377500.0,175000.0,155000.0,1/08/2022,Single Unit excluding Bach,Residential Suburban,Inside,No appreciable view,Tile Profile,Weatherboard,Residential-Dwelling-1950's-average,Fully Furnished,,,NO,-43.5365073,172.5707322
18/31 BORDESLEY STREET,PHILLIPSTOWN,CHRISTCHURCH,8011.0,Apartment,2.0,1.0,1.0,,1.0,,51.0,2000.0,420.0,20/01/2025,7.0,-,320000.0,140000.0,180000.0,1/08/2022,Single Unit excluding Bach,Residential Medium Density,Rear,No appreciable view,Steel/G-Iron,Concrete,Residential-Apartment-2000/2009-average,nill,,,YES,-43.5396327,172.6614063
23/31 BORDESLEY STREET,PHILLIPSTOWN,CHRISTCHURCH,8011.0,Apartment,2.0,1.0,1.0,,1.0,,51.0,2000.0,420.0,26/07/2025,7.0,-,320000.0,140000.0,180000.0,1/08/2022,Single Unit excluding Bach,Residential Medium Density,Rear,No appreciable view,Steel/G-Iron,Concrete,Residential-Apartment-2000/2009-average,partial,fridge;microwave;washing machine,,YES,-43.5395994,172.6611722
4/10 RADNOR STREET,ST ALBANS,CHRISTCHURCH,8014.0,,1.0,1.0,,,,158.0,52.0,2019.0,475.0,24/04/2025,7.0,Rent Wise Property Management,650000.0,290000.0,360000.0,1/08/2022,Single Unit excluding Bach,Residential Suburban Density Transition,Inside,No appreciable view,Steel/G-Iron,Brick,Residential-Dwelling-2010/2019-average,nill,,,NO,-43.5126736,172.6332973
8/44 CREYKE ROAD,ILAM,CHRISTCHURCH,8041.0,Townhouse,1.0,1.0,1.0,,1.0,95.0,52.0,2024.0,550.0,9/08/2025,7.0,Success Property Management,600000.0,350000.0,250000.0,1/08/2022,Single Unit excluding Bach,Residential Suburban Density Transition,Inside,No appreciable view,Steel/G-Iron,Brick,Residential-OYO-2020/2029-average,nill,,,YES,-43.5204557,172.5851362
2A DIVISION STREET,RICCARTON,CHRISTCHURCH,8041.0,Townhouse,1.0,1.0,,1.0,1.0,71.0,52.0,2021.0,500.0,11/07/2025,7.0,Wolfbrook Property Management,550000.0,270000.0,280000.0,1/08/2022,Single Unit excluding Bach,Central City Guest Accommodation,Corner,No appreciable view,Steel/G-Iron,Mix.Material,Residential-OYO-2020/2029-average,nill,,,NO,-43.5370439,172.5999829
1/10 LINDSAY STREET,ST ALBANS,CHRISTCHURCH,8014.0,Townhouse,2.0,1.0,,1.0,2.0,,52.0,2016.0,490.0,30/04/2025,7.0,"Progressive First National - Progressive Realty Ltd Mreinz, (Licensed: Reaa 2008)",530000.0,160000.0,370000.0,1/08/2022,Single Unit excluding Bach,Residential Suburban Density Transition,Inside,No appreciable view,Steel/G-Iron,Mix.Material,Residential-OYO-2010/2019-average,,,,NO,-43.5130334,172.641376
1/407 HEREFORD STREET,LINWOOD,CHRISTCHURCH,8011.0,Townhouse,2.0,1.0,,,,141.0,52.0,2020.0,520.0,28/01/2025,22.0,Opes Property Management South Limited,460000.0,215000.0,245000.0,1/08/2022,Single Unit excluding Bach,Residential Zone D,Inside,No appreciable view,Steel/G-Iron,Brick,Residential-OYO-2020/2029-average,nill,,,NO,-43.5318688,172.6555346
3/306 STANMORE ROAD,RICHMOND,CHRISTCHURCH,8013.0,Townhouse,2.0,1.0,,1.0,1.0,,52.0,2017.0,500.0,3/04/2025,7.0,-,420000.0,130000.0,290000.0,1/08/2022,Single Unit excluding Bach,Residential Zone D,Inside,No appreciable view,Tile Profile,"Roughcast,etc",Residential-OYO-2010/2019-average,nill,unfurnished,,NO,-43.5196548,172.6568046
8/468 CASHEL STREET,LINWOOD,CHRISTCHURCH,8011.0,Apartment,1.0,1.0,,,,75.0,53.0,2025.0,400.0,16/01/2025,7.0,Iron Bridge Property Management - Christchurch,320000.0,140000.0,180000.0,1/08/2022,Single Unit excluding Bach,Residential Medium Density,Corner,No appreciable view,Steel/G-Iron,Concrete,Residential-Apartment-2010/2019-average,nill,,,NO,-43.5331924,172.6584566
16/468 CASHEL STREET,LINWOOD,CHRISTCHURCH,8011.0,Apartment,1.0,1.0,,,,75.0,53.0,2025.0,400.0,15/04/2025,36.0,Iron Bridge Chch 01,320000.0,140000.0,180000.0,1/08/2022,Single Unit excluding Bach,Residential Medium Density,Corner,No appreciable view,Steel/G-Iron,Concrete,Residential-Apartment-2010/2019-average,nill,,,NO,-43.5331924,172.6584566
16/126 NURSERY ROAD,LINWOOD,CHRISTCHURCH,8011.0,Apartment,1.0,1.0,,,,75.0,53.0,2025.0,380.0,30/05/2025,141.0,A1 Property Managers Ltd,280000.0,125000.0,155000.0,1/08/2022,Single Unit excluding Bach,Residential Medium Density,Corner,No appreciable view,Steel/G-Iron,Concrete,Residential-Apartment-2010/2019-average,nill,,,NO,-43.539553,172.6561557
1/96 PAPAROA STREET,PAPANUI,CHRISTCHURCH,8053.0,Townhouse,1.0,1.0,1.0,1.0,1.0,71.0,54.0,2025.0,520.0,3/04/2025,23.0,Rentworks Property Management 2018 Ltd,485000.0,348719.0083,136280.9917,1/08/2022,Single Unit excluding Bach,Residential Suburban,Inside,No appreciable view,Steel/G-Iron,Brick,Residential-OYO-1960's-average,,,,YES,-43.5000933,172.618547
594 BARBADOES STREET,EDGEWARE,CHRISTCHURCH,8013.0,Unit,1.0,1.0,6.0,,6.0,71.0,54.0,1970.0,335.0,28/06/2025,7.0,-,480000.0,230718.232,249281.768,1/08/2022,Multi-unit,Residential Suburban Density Transition,Rear,No appreciable view,Tile Profile,Concrete,Residential-Purpose built flat-1970's-average,partial,dining table;double beds,,YES,-43.5123259,172.6463342
6B MACMILLAN AVENUE,CASHMERE,CHRISTCHURCH,8022.0,Unit,1.0,1.0,,3.0,3.0,71.0,54.0,1920.0,370.0,4/08/2025,240.0,"Whittle Knight Real Estate Ltd, (Licensed: Reaa 2008)",480000.0,230718.232,249281.768,1/08/2022,Multi-unit,Residential Hills,Rear,Focal Point Of view - Other,Tile Profile,Weatherboard,Residential-Converted Flat-1914/1929-average,nill,,,NO,-43.5725078,172.6285699
5 MARINE PARADE,NORTH NEW BRIGHTON,CHRISTCHURCH,8083.0,House,1.0,1.0,,1.0,1.0,506.0,54.0,1915.0,470.0,16/01/2025,7.0,Myrent.Co.NZ Ltd,475000.0,340000.0,135000.0,1/08/2022,Single Unit excluding Bach,Residential Suburban,Inside,No appreciable view,Steel/G-Iron,Weatherboard,Residential-Dwelling-pre 1914-average,nill,,,NO,-43.4867617,172.7234179
32A JENNIFER STREET,BRYNDWR,CHRISTCHURCH,8053.0,,1.0,1.0,,1.0,1.0,323.0,54.0,1980.0,500.0,7/05/2025,36.0,Prestige Property Management Ltd,460000.0,375000.0,85000.0,1/08/2022,Single Unit excluding Bach,Residential Suburban,Rear,No appreciable view,Tile Profile,Fibre Cement,Residential-Dwelling-1950's-average,partial,fridge,,NO,-43.5003981,172.5941083
6/13 WARRINGTON STREET,MAIREHAU,CHRISTCHURCH,8013.0,Townhouse,1.0,1.0,1.0,,1.0,54.0,54.0,2025.0,450.0,15/07/2025,7.0,Wolfbrook Property Management,450000.0,180000.0,270000.0,1/08/2022,Single Unit excluding Bach,Residential Suburban Density Transition,Rear,No appreciable view,Steel/G-Iron,Mix.Material,Residential-OYO-2020/2029-average,partial,dryer;fridge;microwave;washing machine,Pets OK,YES,-43.5075881,172.6428595
2/13 WARRINGTON STREET,MAIREHAU,CHRISTCHURCH,8013.0,Townhouse,1.0,1.0,1.0,,1.0,54.0,54.0,2025.0,460.0,2/07/2025,8.0,Positive Asset Management (Chch),450000.0,180000.0,270000.0,1/08/2022,Single Unit excluding Bach,Residential Suburban Density Transition,Rear,No appreciable view,Steel/G-Iron,Mix.Material,Residential-OYO-2020/2029-average,nill,unfurnished,,YES,-43.5077228,172.6429173
3/13 WARRINGTON STREET,MAIREHAU,CHRISTCHURCH,8013.0,Townhouse,1.0,1.0,1.0,,1.0,54.0,54.0,2025.0,470.0,25/06/2025,7.0,Positive Asset Management (Chch),450000.0,180000.0,270000.0,1/08/2022,Single Unit excluding Bach,Residential Suburban Density Transition,Rear,No appreciable view,Steel/G-Iron,Mix.Material,Residential-OYO-2020/2029-average,partial,fridge/freezer and washing machine,,YES,-43.5076857,172.6429048
6/153 CLARENCE STREET,RICCARTON,CHRISTCHURCH,8011.0,Unit,2.0,1.0,,1.0,1.0,,54.0,1970.0,470.0,4/03/2025,7.0,-,425000.0,265000.0,160000.0,1/08/2022,Single Unit excluding Bach,Central City Guest Accommodation,Rear,No appreciable view,Steel/G-Iron,Concrete,Residential-OYO-1970's-average,nill,,,NO,-43.533468,172.6015273
4/72 WARD STREET,ADDINGTON,CHRISTCHURCH,8024.0,Unit,2.0,1.0,,1.0,1.0,,54.0,1980.0,420.0,16/01/2025,52.0,"Irelands, (Licensed: Reaa 2008)",400000.0,127000.0,273000.0,1/08/2022,Single Unit excluding Bach,Residential Medium Density,Rear,No appreciable view,Steel/G-Iron,Concrete,Residential-OYO-1980's-average,nill,,,NO,-43.5461457,172.6212792
4/31 DRAPER STREET,RICHMOND,CHRISTCHURCH,8013.0,Unit,2.0,1.0,,1.0,1.0,,54.0,1975.0,390.0,21/07/2025,7.0,Iron Bridge Property Management - Christchurch,340000.0,210000.0,130000.0,1/08/2022,Multi-unit,Residential Medium Density,Inside,No appreciable view,Steel/G-Iron,Concrete,Residential-OYO-1970's-average,nill,,No,NO,-43.5234279,172.6557514
6/31 DRAPER STREET,RICHMOND,CHRISTCHURCH,8013.0,Unit,2.0,1.0,,1.0,1.0,,54.0,1970.0,390.0,28/07/2025,7.0,Iron Bridge Chch 01,340000.0,210000.0,130000.0,1/08/2022,Multi-unit,Residential Medium Density,Inside,No appreciable view,Steel/G-Iron,"Roughcast,etc",Residential-OYO-1970's-average,nill,,,NO,-43.5233514,172.6557238
1/26 DELORAINE STREET,SOMERFIELD,CHRISTCHURCH,8024.0,Townhouse,1.0,1.0,2.0,,2.0,71.0,54.0,2025.0,480.0,30/04/2025,28.0,-,335000.0,315000.0,20000.0,1/08/2022,Single Unit excluding Bach,Residential Suburban Density Transition,Inside,No appreciable view,Steel/G-Iron,Mix.Material,Residential-OYO-1960's-average,nill,,,YES,-43.5601706,172.6235773
8/20 AVALON STREET,RICHMOND,CHRISTCHURCH,8013.0,,1.0,1.0,,1.0,1.0,71.0,54.0,2025.0,350.0,28/02/2025,8.0,Slpm Ltd Auckland,285000.0,80000.0,205000.0,1/08/2022,Single Unit excluding Bach,Residential Medium Density,Inside,No appreciable view,Steel/G-Iron,Mix.Material,Residential-OYO-1970's-average,nill,,,NO,-43.5191738,172.6515736
9/20 AVALON STREET,RICHMOND,CHRISTCHURCH,8013.0,,1.0,1.0,,1.0,1.0,71.0,54.0,2025.0,350.0,20/03/2025,7.0,Slpm Ltd Auckland,285000.0,80000.0,205000.0,1/08/2022,Single Unit excluding Bach,Residential Medium Density,Inside,No appreciable view,Steel/G-Iron,Mix.Material,Residential-OYO-1970's-average,nill,,,NO,-43.5191745,172.6515088
5/20 AVALON STREET,RICHMOND,CHRISTCHURCH,8013.0,,1.0,1.0,,1.0,1.0,71.0,54.0,2025.0,350.0,30/05/2025,7.0,Slpm Ltd Auckland,285000.0,80000.0,205000.0,1/08/2022,Single Unit excluding Bach,Residential Medium Density,Inside,No appreciable view,Steel/G-Iron,Mix.Material,Residential-OYO-1970's-average,nill,,,NO,-43.5191719,172.6518111
6/20 AVALON STREET,RICHMOND,CHRISTCHURCH,8013.0,,1.0,1.0,,1.0,1.0,71.0,54.0,2025.0,350.0,8/07/2025,7.0,Slpm Ltd Auckland,285000.0,80000.0,205000.0,1/08/2022,Single Unit excluding Bach,Residential Medium Density,Inside,No appreciable view,Steel/G-Iron,Mix.Material,Residential-OYO-1970's-average,nill,unfurnished,,NO,-43.5191716,172.6517217
78 MARINE PARADE,NORTH NEW BRIGHTON,CHRISTCHURCH,8083.0,House,1.0,1.0,,1.0,1.0,100.0,55.0,2025.0,455.0,29/08/2025,22.0,Max Property Management Ltd,600000.0,540000.0,60000.0,1/08/2022,Single Unit excluding Bach,Residential Medium Density,Inside,No appreciable view,Steel/G-Iron,Weatherboard,Residential-Dwelling-1914/1929-average,nill,,No,NO,-43.4938942,172.7259609
3/241 LINCOLN ROAD,ADDINGTON,CHRISTCHURCH,8024.0,Townhouse,1.0,1.0,,,,73.0,55.0,2021.0,465.0,1/06/2025,7.0,Max Property Management Ltd,500000.0,133000.0,367000.0,1/08/2022,Single Unit excluding Bach,Residential Zone D,Inside,No appreciable view,Steel/G-Iron,Concrete,Residential-OYO-2020/2029-average,partial,dryer;fridge;microwave;washer,,NO,-43.5449339,172.609203
4/581 WORCESTER STREET,LINWOOD,CHRISTCHURCH,8062.0,Townhouse,3.0,1.0,1.0,,1.0,128.0,55.0,2024.0,490.0,18/03/2025,8.0,Trust Living Investment Limited,490000.0,160000.0,330000.0,1/08/2022,Single Unit excluding Bach,Central City Guest Accommodation,Rear,No appreciable view,Steel/G-Iron,Weatherboard,Residential-OYO-2020/2029-average,nill,,,YES,-43.5304449,172.6690504
32/101 MACKWORTH STREET,WOOLSTON,CHRISTCHURCH,8062.0,Townhouse,1.0,1.0,1.0,,1.0,63.0,55.0,2022.0,429.0,3/04/2025,23.0,A1 Property Managers Ltd,460000.0,175000.0,285000.0,1/08/2022,Single Unit excluding Bach,Central City Guest Accommodation,Inside,No appreciable view,Steel/G-Iron,Mix.Material,Residential-OYO-2020/2029-average,nill,,,YES,-43.5384177,172.6732316
31/101 MACKWORTH STREET,WOOLSTON,CHRISTCHURCH,8062.0,Townhouse,1.0,1.0,1.0,,1.0,52.0,55.0,2022.0,439.0,13/02/2025,71.0,A1 Property Managers Ltd,460000.0,175000.0,285000.0,1/08/2022,Single Unit excluding Bach,Central City Guest Accommodation,Inside,No appreciable view,Steel/G-Iron,Mix.Material,Residential-OYO-2020/2029-average,nill,,,YES,-43.5383962,172.6731752
4A HOWE STREET,NEW BRIGHTON,CHRISTCHURCH,8083.0,,1.0,1.0,1.0,,1.0,153.0,55.0,2024.0,480.0,1/08/2025,2.0,Harcourts Gold Property Management,450000.0,180000.0,270000.0,1/08/2022,Single Unit excluding Bach,Residential Suburban Density Transition,Inside,No appreciable view,Steel/G-Iron,Mix.Material,Residential-Dwelling-2020/2029-average,nill,,Pets OK,YES,-43.5045812,172.7266125
80D SHAKESPEARE ROAD,WALTHAM,CHRISTCHURCH,8023.0,Townhouse,2.0,1.0,,1.0,1.0,,55.0,2018.0,460.0,4/04/2025,7.0,-,425000.0,235000.0,190000.0,1/08/2022,Single Unit excluding Bach,Residential Medium Density,Inside,No appreciable view,Steel/G-Iron,Brick,Residential-OYO-2010/2019-average,nill,,,NO,-43.5459636,172.6502431
80H SHAKESPEARE ROAD,WALTHAM,CHRISTCHURCH,8023.0,Townhouse,2.0,1.0,,1.0,1.0,,55.0,2018.0,500.0,22/01/2025,7.0,Bayleys Property Management Ltd,425000.0,235000.0,190000.0,1/08/2022,Single Unit excluding Bach,Residential Medium Density,Inside,No appreciable view,Steel/G-Iron,"Roughcast,etc",Residential-OYO-2010/2019-average,nill,,,NO,-43.5459636,172.6502431
80B SHAKESPEARE ROAD,WALTHAM,CHRISTCHURCH,8023.0,Townhouse,2.0,1.0,,1.0,1.0,,55.0,2018.0,510.0,29/01/2025,134.0,Inspire Property Management Limited,415000.0,235000.0,180000.0,1/08/2022,Single Unit excluding Bach,Residential Medium Density,Inside,No appreciable view,Steel/G-Iron,"Roughcast,etc",Residential-OYO-2010/2019-average,partial,fridge;sofa;washer,,NO,-43.5459636,172.6502431
2/456 BARBADOES STREET,EDGEWARE,CHRISTCHURCH,8013.0,Unit,2.0,1.0,,1.0,1.0,,55.0,1967.0,430.0,19/02/2025,7.0,Rent Wise Property Management,390000.0,230000.0,160000.0,1/08/2022,Single Unit excluding Bach,Residential Medium Density,Rear,No appreciable view,Steel/G-Iron,Brick,Residential-OYO-1960's-average,nill,,,NO,-43.5191059,172.646261
4 LEAVER TERRACE,NORTH NEW BRIGHTON,CHRISTCHURCH,8083.0,Townhouse,1.0,1.0,1.0,,1.0,57.0,56.0,2023.0,460.0,11/05/2025,12.0,Rentworks Property Management 2018 Ltd,470000.0,200000.0,270000.0,1/08/2022,Single Unit excluding Bach,Residential Medium Density,Inside,No appreciable view,Steel/G-Iron,Mix.Material,Residential-OYO-2020/2029-average,Fully Furnished,,,YES,-43.4940334,172.7258702
3/75 GERALDINE STREET,EDGEWARE,CHRISTCHURCH,8013.0,Townhouse,2.0,1.0,,1.0,1.0,,56.0,2016.0,450.0,6/08/2025,2.0,"Whittle Knight Real Estate Ltd, (Licensed: Reaa 2008)",450000.0,185000.0,265000.0,1/08/2022,Single Unit excluding Bach,Residential Medium Density,Inside,No appreciable view,Steel/G-Iron,"Roughcast,etc",Residential-OYO-2010/2019-average,nill,,No,NO,-43.517095,172.6471067
2/75 GERALDINE STREET,EDGEWARE,CHRISTCHURCH,8013.0,Townhouse,2.0,1.0,,1.0,1.0,,56.0,2016.0,485.0,29/01/2025,51.0,Freedom Property Management Limited,450000.0,185000.0,265000.0,1/08/2022,Single Unit excluding Bach,Residential Medium Density,Inside,No appreciable view,Steel/G-Iron,"Roughcast,etc",Residential-OYO-2010/2019-average,nill,,,NO,-43.5170952,172.6471891
1/345 ARMAGH STREET,LINWOOD,CHRISTCHURCH,8011.0,Townhouse,1.0,1.0,,1.0,1.0,71.0,56.0,2025.0,440.0,15/08/2025,27.0,"Braziers Limited, (Licensed: Reaa 2008)",400000.0,235000.0,165000.0,1/08/2022,Single Unit excluding Bach,Residential Medium Density,Inside,No appreciable view,Steel/G-Iron,Concrete,Residential-OYO-2000/2009-average,Fully Furnished,,Pets OK,NO,-43.5285795,172.6521477
3/494 HEREFORD STREET,LINWOOD,CHRISTCHURCH,8011.0,Unit,2.0,1.0,,1.0,1.0,,56.0,1975.0,450.0,1/08/2025,7.0,"Irelands, (Licensed: Reaa 2008)",370000.0,250000.0,120000.0,1/08/2022,Single Unit excluding Bach,Residential Medium Density,Rear,No appreciable view,Steel/G-Iron,Concrete,Residential-OYO-1970's-average,nill,,,NO,-43.5323704,172.6606381
28/30 MATHESONS ROAD,PHILLIPSTOWN,CHRISTCHURCH,8011.0,Apartment,2.0,1.0,2.0,,2.0,,56.0,2000.0,480.0,26/08/2025,15.0,-,370000.0,140000.0,230000.0,1/08/2022,Single Unit excluding Bach,Residential Medium Density,Inside,No appreciable view,Steel/G-Iron,"Roughcast,etc",Residential-Apartment-2000/2009-average,nill,,,YES,-43.539221,172.659761
7/7C CURLETTS ROAD,SOCKBURN,CHRISTCHURCH,8042.0,Unit,1.0,1.0,,1.0,1.0,,56.0,1960.0,320.0,18/03/2025,104.0,Myrent.Co.NZ Ltd,325000.0,200000.0,125000.0,1/08/2022,Single Unit excluding Bach,Residential Suburban,Inside,No appreciable view,Steel/G-Iron,Stone,Residential-OYO-1960's-average,partial,washing machine,,NO,-43.5333205,172.5686559
75 MOHUA LANE,UPPER RICCARTON,CHRISTCHURCH,8041.0,Townhouse,1.0,1.0,1.0,,1.0,69.0,57.0,2023.0,520.0,9/09/2025,1.0,Managed By Williams,570000.0,160000.0,410000.0,1/08/2022,Single Unit excluding Bach,Residential Suburban,Inside,No appreciable view,Steel/G-Iron,Mix.Material,Residential-OYO-2020/2029-average,nill,,,YES,-43.5354714,172.5853591
71C GERALDINE STREET,EDGEWARE,CHRISTCHURCH,8013.0,Townhouse,1.0,1.0,1.0,,1.0,100.0,57.0,2021.0,430.0,23/04/2025,2.0,"Braziers Limited, (Licensed: Reaa 2008)",525000.0,210000.0,315000.0,1/08/2022,Single Unit excluding Bach,Residential Medium Density,Inside,No appreciable view,Steel/G-Iron,Mix.Material,Residential-OYO-2020/2029-average,nill,,,YES,-43.5172551,172.647163
22/180 MARINE PARADE,NEW BRIGHTON,CHRISTCHURCH,8083.0,Townhouse,1.0,1.0,1.0,,1.0,112.0,57.0,2023.0,450.0,8/09/2025,32.0,Care Property Rentals,510000.0,240000.0,270000.0,1/08/2022,Single Unit excluding Bach,Residential Medium Density,Corner,No appreciable view,Steel/G-Iron,Mix.Material,Residential-OYO-2020/2029-average,partial,dryer;fridge;fridge/freezer;microwave;washer;washer/dryer,Pets OK,YES,-43.504004,172.7291793
14/180 MARINE PARADE,NEW BRIGHTON,CHRISTCHURCH,8083.0,Townhouse,1.0,1.0,1.0,,1.0,83.0,57.0,2023.0,450.0,14/03/2025,8.0,Harcourts Vision Property Management Ltd,500000.0,230000.0,270000.0,1/08/2022,Single Unit excluding Bach,Residential Medium Density,Corner,No appreciable view,Steel/G-Iron,Mix.Material,Residential-OYO-2020/2029-average,partial,dryer;fridge;fridge/freezer;microwave;washer;washer/dryer,No,YES,-43.5036969,172.7290409
18/180 MARINE PARADE,NEW BRIGHTON,CHRISTCHURCH,8083.0,Townhouse,1.0,1.0,1.0,,1.0,82.0,57.0,2023.0,455.0,29/08/2025,32.0,Max Property Management Ltd,500000.0,230000.0,270000.0,1/08/2022,Single Unit excluding Bach,Residential Medium Density,Corner,No appreciable view,Steel/G-Iron,Mix.Material,Residential-OYO-2020/2029-average,partial,dryer;fridge;fridge/freezer;microwave;washing machine,,YES,-43.5038781,172.7291206
5/19 KEPPEL STREET,NEW BRIGHTON,CHRISTCHURCH,8083.0,Townhouse,1.0,1.0,1.0,,1.0,103.0,57.0,2023.0,520.0,9/05/2025,4.0,Max Property Management Ltd,500000.0,230000.0,270000.0,1/08/2022,Single Unit excluding Bach,Residential Medium Density,Inside,No appreciable view,Steel/G-Iron,Mix.Material,Residential-OYO-2020/2029-average,partial,dryer;fridge;microwave;washer,,YES,-43.5038382,172.7287892
12/180 MARINE PARADE,NEW BRIGHTON,CHRISTCHURCH,8083.0,Townhouse,1.0,1.0,1.0,,1.0,57.0,57.0,2023.0,475.0,14/03/2025,7.0,Max Property Management Ltd,490000.0,220000.0,270000.0,1/08/2022,Single Unit excluding Bach,Residential Medium Density,Inside,No appreciable view,Steel/G-Iron,Mix.Material,Residential-OYO-2020/2029-average,partial,dryer;fridge;fridge/freezer;microwave;washer;washer/dryer,,YES,-43.5036707,172.7291491
29/180 MARINE PARADE,NEW BRIGHTON,CHRISTCHURCH,8083.0,Townhouse,1.0,1.0,1.0,,1.0,55.0,57.0,2023.0,485.0,9/05/2025,7.0,Managed By Williams,490000.0,220000.0,270000.0,1/08/2022,Single Unit excluding Bach,Residential Medium Density,Inside,No appreciable view,Steel/G-Iron,Mix.Material,Residential-OYO-2020/2029-average,partial,dryer;fridge;washer;washer/dryer,,YES,-43.5039596,172.7290261
24/180 MARINE PARADE,NEW BRIGHTON,CHRISTCHURCH,8083.0,Townhouse,1.0,1.0,1.0,,1.0,54.0,57.0,2023.0,525.0,2/04/2025,22.0,Birds Nest Property Management,490000.0,220000.0,270000.0,1/08/2022,Single Unit excluding Bach,Residential Medium Density,Inside,No appreciable view,Steel/G-Iron,Mix.Material,Residential-OYO-2020/2029-average,Fully Furnished,,,YES,-43.5037505,172.728936
2/36 COTTERILL STREET,ADDINGTON,CHRISTCHURCH,8024.0,Unit,2.0,1.0,,1.0,1.0,145.0,57.0,1980.0,390.0,2/05/2025,22.0,-,360000.0,143000.0,217000.0,1/08/2022,Single Unit excluding Bach,Residential Medium Density,Inside,No appreciable view,Steel/G-Iron,Concrete,Residential-OYO-1980's-poor,nill,,,NO,-43.5434033,172.6205156
1/19 WINCHESTER STREET,MERIVALE,CHRISTCHURCH,8014.0,Townhouse,1.0,1.0,,,,103.0,58.0,2025.0,500.0,6/05/2025,34.0,Managed By Williams,610000.0,410000.0,200000.0,1/08/2022,Single Unit excluding Bach,Residential Medium Density,Inside,No appreciable view,Steel/G-Iron,Mix.Material,Residential-OYO-2020/2029-average,partial,dryer;fridge;washer,,NO,-43.5191081,172.6212611
23 HAWKHURST ROAD,LYTTELTON,LYTTELTON,8082.0,House,2.0,2.0,,1.0,1.0,606.0,58.0,1940.0,500.0,7/04/2025,92.0,A1 Property Managers Ltd,610000.0,315000.0,295000.0,1/08/2022,Single Unit excluding Bach,Residential Banks Peninsula,Inside,Focal Point Of view - Water,Steel/G-Iron,Fibre Cement,Residential-Dwelling-1940's-poor,,,,NO,-43.6005773,172.7159451
2/19 WINCHESTER STREET,MERIVALE,CHRISTCHURCH,8014.0,Townhouse,1.0,1.0,,,,116.0,58.0,2025.0,500.0,20/03/2025,7.0,Max Property Management Ltd,600000.0,400000.0,200000.0,1/08/2022,Single Unit excluding Bach,Residential Medium Density,Rear,No appreciable view,Steel/G-Iron,Mix.Material,Residential-OYO-2020/2029-average,nill,,,NO,-43.5191813,172.6210907
2/35 MOHUA LANE,UPPER RICCARTON,CHRISTCHURCH,8041.0,Townhouse,1.0,1.0,1.0,,1.0,70.0,58.0,2023.0,475.0,3/04/2025,7.0,Max Property Management Ltd,570000.0,160000.0,410000.0,1/08/2022,Single Unit excluding Bach,Residential Suburban,Inside,No appreciable view,Steel/G-Iron,Mix.Material,Residential-OYO-2020/2029-average,partial,dryer;fridge;microwave;washer,,YES,-43.5352638,172.5855477
2/41 MOHUA LANE,UPPER RICCARTON,CHRISTCHURCH,8041.0,Townhouse,1.0,1.0,1.0,,1.0,69.0,58.0,2023.0,500.0,9/05/2025,21.0,Managed By Williams,570000.0,160000.0,410000.0,1/08/2022,Single Unit excluding Bach,Residential Suburban,Inside,No appreciable view,Steel/G-Iron,Mix.Material,Residential-OYO-2020/2029-average,Fully Furnished,,,YES,-43.5353123,172.5849472
3/3 SHEARER AVENUE,PAPANUI,CHRISTCHURCH,8052.0,Townhouse,1.0,1.0,1.0,,1.0,67.0,58.0,2022.0,450.0,22/06/2025,7.0,-,540000.0,330000.0,210000.0,1/08/2022,Single Unit excluding Bach,Residential Medium Density,Inside,No appreciable view,Steel/G-Iron,Mix.Material,Residential-OYO-2020/2029-average,partial,dryer;microwave;washer;washer/dryer,,YES,-43.4967917,172.607626
24 DOBSON STREET,SPREYDON,CHRISTCHURCH,8024.0,Townhouse,2.0,1.0,1.0,,1.0,102.0,58.0,2024.0,525.0,7/03/2025,7.0,Forsyth Property Management,530000.0,220000.0,310000.0,1/08/2022,Single Unit excluding Bach,Residential Suburban Density Transition,Rear,No appreciable view,Steel/G-Iron,Mix.Material,Residential-OYO-2020/2029-average,partial,washing machine,,YES,-43.5535378,172.6258243
11/232 MARINE PARADE,NEW BRIGHTON,CHRISTCHURCH,8061.0,Townhouse,1.0,1.0,1.0,,1.0,104.0,58.0,2020.0,455.0,5/08/2025,19.0,Max Property Management Ltd,510000.0,230000.0,280000.0,1/08/2022,Single Unit excluding Bach,Residential Medium Density,Rear,No appreciable view,Steel/G-Iron,Mix.Material,Residential-OYO-2020/2029-average,partial,dryer;fridge;fridge/freezer;microwave;washer;washer/dryer,No,YES,-43.5091591,172.7312975
13/232 MARINE PARADE,NEW BRIGHTON,CHRISTCHURCH,8061.0,Townhouse,1.0,1.0,1.0,,1.0,67.0,58.0,2020.0,450.0,17/04/2025,35.0,Max Property Management Ltd,490000.0,220000.0,270000.0,1/08/2022,Single Unit excluding Bach,Residential Medium Density,Rear,No appreciable view,Steel/G-Iron,Mix.Material,Residential-OYO-2020/2029-average,partial,dryer;fridge;fridge/freezer;microwave;washer;washer/dryer,Pets OK,YES,-43.5092019,172.731196
17/231 MARINE PARADE,NEW BRIGHTON,CHRISTCHURCH,8061.0,Townhouse,1.0,1.0,1.0,,1.0,60.0,58.0,2023.0,490.0,4/03/2025,18.0,Max Property Management Ltd,490000.0,220000.0,270000.0,1/08/2022,Single Unit excluding Bach,Residential Medium Density,Rear,No appreciable view,Steel/G-Iron,Mix.Material,Residential-OYO-2020/2029-average,partial,dryer;fridge;fridge/freezer;microwave;washer;washer/dryer,Pets OK,YES,-43.5076593,172.7310976
4/28 ELIZABETH STREET,RICCARTON,CHRISTCHURCH,8041.0,Unit,2.0,1.0,,1.0,1.0,,58.0,1970.0,450.0,12/02/2025,7.0,"Braziers Limited, (Licensed: Reaa 2008)",480000.0,340000.0,140000.0,1/08/2022,Single Unit excluding Bach,Central City Guest Accommodation,Rear,No appreciable view,Steel/G-Iron,Concrete,Residential-OYO-1970's-average,partial,fridge;fridge/freezer;washing machine,Pets OK,NO,-43.5348567,172.6023989
9/376 WORCESTER STREET,LINWOOD,CHRISTCHURCH,8011.0,Apartment,2.0,1.0,,,,,58.0,2017.0,470.0,26/02/2025,127.0,Care Property Rentals,435000.0,150000.0,285000.0,1/08/2022,Single Unit excluding Bach,Commercial Local,Inside,No appreciable view,Steel/G-Iron,Concrete,Residential-Apartment-2010/2019-average,nill,,,NO,-43.531069,172.6563375
224A HILLS ROAD,MAIREHAU,CHRISTCHURCH,8013.0,,2.0,1.0,,,,,58.0,2000.0,450.0,10/04/2025,239.0,Harcourts Four Seasons - Rangiora,430000.0,275000.0,155000.0,1/08/2022,Single Unit excluding Bach,Residential Suburban,Rear,No appreciable view,Tile Profile,Brick,Residential-Dwelling-2000/2009-average,nill,,,NO,-43.5073269,172.6525256
6/376 WORCESTER STREET,LINWOOD,CHRISTCHURCH,8011.0,Apartment,2.0,1.0,,,,,58.0,2017.0,450.0,16/08/2025,25.0,Fraser Flynn Property Management,420000.0,140000.0,280000.0,1/08/2022,Single Unit excluding Bach,Commercial Local,Inside,No appreciable view,Steel/G-Iron,Concrete,Residential-Apartment-2010/2019-average,partial,fridge;microwave;washing machine,,NO,-43.5310488,172.6563351
9/443 CASHEL STREET,LINWOOD,CHRISTCHURCH,8011.0,Apartment,2.0,1.0,1.0,,1.0,,58.0,2000.0,480.0,31/07/2025,111.0,Brooksfield Property Management,365000.0,180000.0,185000.0,1/08/2022,Single Unit excluding Bach,Residential Zone D,Inside,No appreciable view,Steel/G-Iron,Mix.Material,Residential-Apartment-2000/2009-average,partial,dryer;fridge,,YES,-43.5325193,172.657731
1/98 HUXLEY STREET,SYDENHAM,CHRISTCHURCH,8023.0,Unit,2.0,1.0,1.0,,1.0,239.0,58.0,1975.0,420.0,20/06/2025,8.0,Max Property Management Ltd,360000.0,205000.0,155000.0,1/08/2022,Single Unit excluding Bach,Residential Medium Density,Inside,No appreciable view,Steel/G-Iron,Concrete,Residential-OYO-1970's-average,nill,,No,YES,-43.5519994,172.6420794
2/98 HUXLEY STREET,SYDENHAM,CHRISTCHURCH,8023.0,Unit,2.0,1.0,1.0,,1.0,157.0,58.0,1975.0,420.0,21/01/2025,4.0,Max Property Management Ltd,350000.0,190000.0,160000.0,1/08/2022,Single Unit excluding Bach,Residential Medium Density,Inside,No appreciable view,Steel/G-Iron,Concrete,Residential-OYO-1970's-average,nill,,,YES,-43.5520675,172.6419835
3/1G HEWITTS ROAD,MERIVALE,CHRISTCHURCH,8014.0,Apartment,1.0,1.0,1.0,,1.0,,59.0,2022.0,480.0,20/07/2025,841.0,Holmwood Property Management,745000.0,255000.0,490000.0,1/08/2022,Single Unit excluding Bach,Residential Medium Density,Corner,Focal Point Of view - Other,Steel/G-Iron,Mix.Material,Residential-Apartment-2020/2029-average,nill,,,YES,-43.5201348,172.6190675
7/5 SHEARER AVENUE,PAPANUI,CHRISTCHURCH,8052.0,Townhouse,1.0,1.0,1.0,,1.0,74.0,59.0,2022.0,495.0,6/05/2025,54.0,Rural Tenancy Ltd,540000.0,330000.0,210000.0,1/08/2022,Single Unit excluding Bach,Residential Medium Density,Inside,No appreciable view,Steel/G-Iron,Mix.Material,Residential-OYO-2020/2029-average,Fully Furnished,,,YES,-43.4967917,172.607626
2/191 ENGLAND STREET,LINWOOD,CHRISTCHURCH,8011.0,Townhouse,2.0,2.0,1.0,,1.0,99.0,59.0,2022.0,550.0,26/05/2025,22.0,Myrent.Co.NZ Ltd,510000.0,180000.0,330000.0,1/08/2022,Single Unit excluding Bach,Residential Suburban Density Transition,Inside,No appreciable view,Steel/G-Iron,Mix.Material,Residential-OYO-2020/2029-average,Fully Furnished,,Pets OK,YES,-43.5265825,172.6649353
14/232 MARINE PARADE,NEW BRIGHTON,CHRISTCHURCH,8061.0,Townhouse,1.0,1.0,1.0,,1.0,67.0,59.0,2020.0,485.0,26/02/2025,26.0,Managed By Williams,490000.0,220000.0,270000.0,1/08/2022,Single Unit excluding Bach,Residential Medium Density,Rear,No appreciable view,Steel/G-Iron,Mix.Material,Residential-OYO-2020/2029-average,nill,,,YES,-43.5092124,172.7311489
3/28 FORTH STREET,RICHMOND,CHRISTCHURCH,8013.0,Townhouse,2.0,1.0,,1.0,2.0,,59.0,2018.0,570.0,25/06/2025,16.0,First National Lethbridge,450000.0,175000.0,275000.0,1/08/2022,Single Unit excluding Bach,Residential Medium Density,Inside,No appreciable view,Steel/G-Iron,"Roughcast,etc",Residential-OYO-2010/2019-average,nill,,Pets OK,NO,-43.5194878,172.6583152
9/57 CHARLES STREET,WALTHAM,CHRISTCHURCH,8011.0,Apartment,2.0,1.0,,1.0,1.0,,59.0,2000.0,400.0,10/02/2025,11.0,Najib Property Management,440000.0,130000.0,310000.0,1/08/2022,Single Unit excluding Bach,Residential Medium Density,Rear,No appreciable view,Steel/G-Iron,Concrete,Residential-Apartment-2000/2009-average,partial,dryer;fridge;fridge/freezer;microwave,,NO,-43.5433716,172.6597533
10/14 BROUGHAM STREET,ADDINGTON,CHRISTCHURCH,8024.0,Townhouse,1.0,1.0,1.0,,1.0,71.0,59.0,2025.0,420.0,12/02/2025,8.0,Real Property Management Limited,360000.0,150000.0,210000.0,1/08/2022,Single Unit excluding Bach,Residential Medium Density,Rear,No appreciable view,Steel/G-Iron,Concrete,Residential-OYO-2000/2009-average,Fully Furnished,,,YES,-43.5476516,172.6177935
2/527 WORCESTER STREET,LINWOOD,CHRISTCHURCH,8011.0,Unit,2.0,1.0,,1.0,1.0,162.0,59.0,1960.0,415.0,4/04/2025,2.0,Harcourts Holmwood Property Management - Sherborne,330000.0,200000.0,130000.0,1/08/2022,Single Unit excluding Bach,Central City Guest Accommodation,Rear,No appreciable view,Steel/G-Iron,Stone,Residential-OYO-1960's-average,nill,,,NO,-43.5307051,172.6659135
4/527 WORCESTER STREET,LINWOOD,CHRISTCHURCH,8011.0,Unit,2.0,1.0,,1.0,1.0,163.0,59.0,1960.0,440.0,13/06/2025,2.0,Orbit Property Management,330000.0,200000.0,130000.0,1/08/2022,Single Unit excluding Bach,Central City Guest Accommodation,Rear,No appreciable view,Steel/G-Iron,Stone,Residential-OYO-1960's-average,nill,,,NO,-43.5305664,172.6659075
18 MCCORMACKS BAY ROAD,MOUNT PLEASANT,CHRISTCHURCH,8081.0,House,2.0,1.0,,1.0,1.0,1034.0,60.0,1940.0,600.0,16/01/2025,7.0,Slpm Ltd Auckland,790000.0,600000.0,190000.0,1/08/2022,Single Unit excluding Bach,Residential Hills,Inside,No appreciable view,Fibre Cement,Weatherboard,Residential-Dwelling-1940's-average,nill,,,NO,-43.5565948,172.7209121
13 BERRY STREET,ST ALBANS,CHRISTCHURCH,8014.0,Unit,1.0,1.0,1.0,,1.0,168.0,60.0,1990.0,480.0,5/08/2025,7.0,Superior Property Management Limited,670000.0,620000.0,50000.0,1/08/2022,Single Unit excluding Bach,Residential Medium Density,Inside,No appreciable view,Steel/G-Iron,"Roughcast,etc",Residential-OYO-1990's-average,nill,,,YES,-43.5174017,172.6295187
54A STRAVEN ROAD,RICCARTON,CHRISTCHURCH,8011.0,Unit,2.0,1.0,,1.0,1.0,170.0,60.0,1970.0,430.0,9/07/2025,7.0,Holmwood Property Management,630000.0,430000.0,200000.0,1/08/2022,Single Unit excluding Bach,Central City Guest Accommodation,Inside,No appreciable view,Steel/G-Iron,Concrete,Residential-OYO-1970's-average,Fully Furnished,,,NO,-43.5253742,172.6025242
3/193A RICCARTON ROAD,RICCARTON,CHRISTCHURCH,8041.0,Apartment,2.0,1.0,1.0,,1.0,,60.0,2013.0,580.0,6/02/2025,80.0,My Property Manager,590000.0,335000.0,250000.0,1/08/2022,Single Unit excluding Bach,Residential Suburban Density Transition,Inside,No appreciable view,Steel/G-Iron,Concrete,Residential-Apartment-2010/2019-average,partial,dryer;fridge;microwave;washing machine,,YES,-43.5317556,172.5739782
11 CHARLES STREET,WALTHAM,CHRISTCHURCH,8011.0,House,2.0,1.0,,2.0,2.0,706.0,60.0,1905.0,420.0,16/05/2025,7.0,-,585000.0,580000.0,5000.0,1/08/2022,Single Unit excluding Bach,Residential Medium Density,Inside,No appreciable view,Steel/G-Iron,Weatherboard,Residential-Dwelling-pre 1914-poor,,,,NO,-43.542919,172.65635
4/10A STRAVEN ROAD,RICCARTON,CHRISTCHURCH,8011.0,Unit,2.0,1.0,,1.0,1.0,,60.0,1960.0,470.0,23/01/2025,8.0,-,565000.0,330000.0,225000.0,1/08/2022,Single Unit excluding Bach,Central City Guest Accommodation,Inside,No appreciable view,Steel/G-Iron,Brick,Residential-OYO-1960's-average,nill,,,NO,-43.5286314,172.6031166
2/15 HARAKEKE STREET,RICCARTON,CHRISTCHURCH,8011.0,Unit,2.0,1.0,,1.0,1.0,,60.0,1960.0,420.0,20/02/2025,7.0,Myrent.Co.NZ Ltd,560000.0,415000.0,145000.0,1/08/2022,Single Unit excluding Bach,Central City Guest Accommodation,Rear,No appreciable view,Tile Profile,Concrete,Residential-OYO-1960's-average,nill,,,NO,-43.5280442,172.6050825
2/64 LONGFELLOW STREET,SYDENHAM,CHRISTCHURCH,8023.0,Townhouse,1.0,1.0,,1.0,1.0,89.0,60.0,2021.0,450.0,8/07/2025,7.0,Rent Wise Property Management,550000.0,180000.0,370000.0,1/08/2022,Single Unit excluding Bach,Residential Medium Density,Inside,No appreciable view,Steel/G-Iron,Mix.Material,Residential-OYO-2020/2029-average,nill,,,NO,-43.5549751,172.641028
10/7 SPENCER STREET,ADDINGTON,CHRISTCHURCH,8024.0,Townhouse,1.0,1.0,1.0,,1.0,63.0,60.0,2022.0,475.0,3/04/2025,7.0,Max Property Management Ltd,550000.0,180000.0,370000.0,1/08/2022,Single Unit excluding Bach,Commercial Local,Inside,No appreciable view,Steel/G-Iron,Mix.Material,Residential-OYO-2020/2029-average,partial,dryer;fridge;fridge/freezer;microwave;washer;washer/dryer,No,YES,-43.5447017,172.6111237
13/7 SPENCER STREET,ADDINGTON,CHRISTCHURCH,8024.0,,1.0,1.0,1.0,,1.0,83.0,60.0,2022.0,475.0,23/05/2025,3.0,Max Property Management Ltd,550000.0,190000.0,360000.0,1/08/2022,Single Unit excluding Bach,Commercial Local,Inside,No appreciable view,Steel/G-Iron,Mix.Material,Residential-Dwelling-2020/2029-average,nill,,,YES,-43.5446297,172.6112483
7/7 SPENCER STREET,ADDINGTON,CHRISTCHURCH,8024.0,Townhouse,1.0,1.0,,,,63.0,60.0,2022.0,490.0,3/04/2025,2.0,Iron Bridge Property Management - Christchurch,550000.0,180000.0,370000.0,1/08/2022,Single Unit excluding Bach,Commercial Local,Inside,No appreciable view,Steel/G-Iron,Mix.Material,Residential-OYO-2020/2029-average,Fully Furnished,,,NO,-43.5447762,172.6110015
5/57 DOVER STREET,ST ALBANS,CHRISTCHURCH,8014.0,Unit,2.0,1.0,,1.0,1.0,,60.0,1970.0,500.0,30/05/2025,271.0,Harcourts Asset Managers,550000.0,280000.0,270000.0,1/08/2022,Single Unit excluding Bach,Residential Suburban Density Transition,Rear,No appreciable view,Steel/G-Iron,Concrete,Residential-OYO-1970's-average,nill,,,NO,-43.5107886,172.6349397
4/15A MARRINER STREET,SUMNER,CHRISTCHURCH,8081.0,Unit,2.0,1.0,1.0,,1.0,,60.0,1975.0,540.0,8/04/2025,7.0,"Lime Real Estate, (Licensed: Reaa 2008)",550000.0,255000.0,275000.0,1/08/2022,Single Unit excluding Bach,Residential Medium Density,Inside,No appreciable view,Steel/G-Iron,Mix.Material,Residential-OYO-1970's-average,partial,fridge,,YES,-43.5676016,172.7588914
3/15A MARRINER STREET,SUMNER,CHRISTCHURCH,8081.0,Unit,2.0,1.0,1.0,,1.0,,60.0,1970.0,550.0,12/04/2025,7.0,-,550000.0,255000.0,275000.0,1/08/2022,Single Unit excluding Bach,Residential Medium Density,Inside,No appreciable view,Steel/G-Iron,Mix.Material,Residential-OYO-1970's-average,nill,,,YES,-43.5676183,172.7588245
3/43 HARKER STREET,SPREYDON,CHRISTCHURCH,8024.0,Townhouse,2.0,2.0,,1.0,1.0,140.0,60.0,2023.0,499.0,4/06/2025,7.0,Office Pro,550000.0,200000.0,350000.0,1/08/2022,Single Unit excluding Bach,Residential Suburban Density Transition,Inside,No appreciable view,Steel/G-Iron,Mix.Material,Residential-OYO-2020/2029-average,partial,dryer;fridge;washer;washer/dryer,,NO,-43.5505323,172.6070929
78 BOWER AVENUE,NEW BRIGHTON,CHRISTCHURCH,8083.0,,1.0,1.0,,2.0,2.0,70.0,60.0,2017.0,460.0,28/07/2025,2.0,Harcourts Gold Property Management,540000.0,275000.0,265000.0,1/08/2022,Single Unit excluding Bach,Residential Suburban,Inside,No appreciable view,Steel/G-Iron,Weatherboard,Residential-Dwelling-2010/2019-average,nill,unfurnished,,NO,-43.5007409,172.7102725
4/40 LEINSTER ROAD,MERIVALE,CHRISTCHURCH,8014.0,Unit,2.0,1.0,,1.0,1.0,,60.0,1970.0,475.0,12/02/2025,14.0,Red Chili Property Management Ltd,530000.0,400000.0,130000.0,1/08/2022,Single Unit excluding Bach,Residential Suburban,Rear,No appreciable view,Tile Profile,Concrete,Residential-OYO-1970's-average,nill,,,NO,-43.513944,172.6136514
3/26 GORDON AVENUE,ST ALBANS,CHRISTCHURCH,8014.0,Unit,2.0,1.0,,1.0,1.0,,60.0,1980.0,499.0,28/01/2025,109.0,A1 Property Managers Ltd,530000.0,325000.0,205000.0,1/08/2022,Single Unit excluding Bach,Residential Suburban Density Transition,Rear,No appreciable view,Steel/G-Iron,Mix.Material,Residential-OYO-1980's-average,nill,,,NO,-43.5122031,172.6277907
8/58 PAPANUI ROAD,MERIVALE,CHRISTCHURCH,8014.0,Unit,2.0,1.0,,1.0,1.0,,60.0,1960.0,595.0,5/06/2025,7.0,Myrent.Co.NZ Ltd,520000.0,335000.0,185000.0,1/08/2022,Single Unit excluding Bach,Residential Medium Density,Rear,No appreciable view,Fibre Cement,Concrete,Residential-OYO-1960's-average,Fully Furnished,,Pets OK,NO,-43.5179709,172.6265831
8 REHUA LANE,ST ALBANS,CHRISTCHURCH,8014.0,Unit,2.0,1.0,,1.0,1.0,,60.0,1980.0,500.0,17/06/2025,7.0,-,510000.0,210000.0,300000.0,1/08/2022,Single Unit excluding Bach,Residential Medium Density,Inside,No appreciable view,Steel/G-Iron,Brick,Residential-OYO-1980's-average,,,,NO,-43.5167615,172.629737
65B KILMARNOCK STREET,RICCARTON,CHRISTCHURCH,8011.0,,4.0,1.0,,1.0,1.0,185.0,60.0,1960.0,430.0,14/02/2025,22.0,Iron Bridge Chch 01,510000.0,240000.0,270000.0,1/08/2022,Single Unit excluding Bach,Central City Guest Accommodation,Inside,No appreciable view,Steel/G-Iron,Concrete,Residential-OYO-1960's-average,nill,,No,NO,-43.5273961,172.6026968
2/25B TENNYSON STREET,SYDENHAM,CHRISTCHURCH,8023.0,Unit,2.0,1.0,,1.0,1.0,,60.0,1975.0,520.0,8/04/2025,6.0,The Good Girls Property Management Ltd,500000.0,285000.0,215000.0,1/08/2022,Single Unit excluding Bach,Residential Zone D,Inside,No appreciable view,Tile Profile,Concrete,Residential-OYO-1970's-average,nill,,,NO,-43.5575864,172.638721
14 HAMMOND PLACE,SPREYDON,CHRISTCHURCH,8024.0,House,2.0,1.0,,1.0,1.0,536.0,60.0,1930.0,530.0,1/08/2025,7.0,-,500000.0,375000.0,125000.0,1/08/2022,Single Unit excluding Bach,Residential Suburban Density Transition,Inside,No appreciable view,Tile Profile,Brick,Residential-Dwelling-1930's-average,nill,,,NO,-43.5496347,172.6123051
466B WILSONS ROAD,WALTHAM,CHRISTCHURCH,8011.0,Townhouse,2.0,2.0,1.0,,1.0,126.0,60.0,2023.0,485.0,3/04/2025,7.0,Forsyth Property Management,500000.0,145000.0,355000.0,1/08/2022,Single Unit excluding Bach,Residential Medium Density,Inside,No appreciable view,Steel/G-Iron,Fibre Cement,Residential-OYO-2020/2029-average,partial,washing machine,,YES,-43.540642,172.656843
2/172 GERALDINE STREET,EDGEWARE,CHRISTCHURCH,8013.0,Townhouse,2.0,1.0,,1.0,2.0,,60.0,2017.0,520.0,17/06/2025,7.0,Myrent.Co.NZ Ltd,485000.0,160000.0,325000.0,1/08/2022,Single Unit excluding Bach,Residential Suburban Density Transition,Inside,No appreciable view,Steel/G-Iron,Mix.Material,Residential-OYO-2010/2019-average,nill,,No,NO,-43.5125227,172.6478154
6/32 TONBRIDGE STREET,MERIVALE,CHRISTCHURCH,8014.0,Unit,2.0,1.0,,1.0,1.0,,60.0,1970.0,460.0,30/07/2025,421.0,Orbit Property Management Ltd,480000.0,240000.0,240000.0,1/08/2022,Single Unit excluding Bach,Residential Zone D,Rear,No appreciable view,Steel/G-Iron,Concrete,Residential-OYO-1970's-average,nill,,,NO,-43.5189411,172.6255957
1/529 CASHEL STREET,LINWOOD,CHRISTCHURCH,8011.0,,2.0,1.0,1.0,,1.0,183.0,60.0,2019.0,450.0,8/03/2025,7.0,Bayleys Property Management Ltd,475000.0,220000.0,255000.0,1/08/2022,Single Unit excluding Bach,Residential Medium Density,Inside,No appreciable view,Steel/G-Iron,Weatherboard,Residential-Dwelling-2010/2019-average,nill,,No,YES,-43.5328834,172.6633274
4/5 STOKE STREET,SUMNER,CHRISTCHURCH,8081.0,Unit,2.0,1.0,,1.0,1.0,,60.0,1970.0,500.0,5/06/2025,18.0,Orbit Property Management,475000.0,255000.0,220000.0,1/08/2022,Single Unit excluding Bach,Residential Suburban Density Transition,Rear,No appreciable view,Tile Profile,Concrete,Residential-OYO-1970's-average,partial,double beds,,NO,-43.5701605,172.7617769
3/14 STONEYHURST STREET,ST ALBANS,CHRISTCHURCH,8014.0,Unit,2.0,1.0,,1.0,1.0,,60.0,1975.0,550.0,6/02/2025,7.0,-,460000.0,200000.0,260000.0,1/08/2022,Single Unit excluding Bach,Residential Medium Density,Inside,No appreciable view,Tile Profile,Concrete,Residential-OYO-1970's-average,partial,fridge;fridge/freezer;washing machine,Pets OK,NO,-43.5201006,172.63038
1/62 CLARE ROAD,ST ALBANS,CHRISTCHURCH,8014.0,Unit,2.0,1.0,,1.0,1.0,,60.0,1970.0,470.0,23/01/2025,8.0,"Braziers Limited, (Licensed: Reaa 2008)",455000.0,285000.0,170000.0,1/08/2022,Single Unit excluding Bach,Residential Medium Density,Inside,No appreciable view,Steel/G-Iron,Concrete,Residential-OYO-1970's-average,nill,,,NO,-43.5183059,172.630479
5/58 PAPANUI ROAD,MERIVALE,CHRISTCHURCH,8014.0,Unit,2.0,1.0,,1.0,1.0,,60.0,1960.0,490.0,12/05/2025,56.0,Propertyscouts North Christchurch,450000.0,335000.0,115000.0,1/08/2022,Single Unit excluding Bach,Residential Medium Density,Rear,No appreciable view,Fibre Cement,Concrete,Residential-OYO-1960's-average,partial,dryer;fridge;fridge/freezer;microwave;washing machine,,NO,-43.5179945,172.6265076
6/44 SOUTHAMPTON STREET,SYDENHAM,CHRISTCHURCH,8023.0,Unit,2.0,1.0,,1.0,1.0,,60.0,1975.0,510.0,16/01/2025,7.0,-,450000.0,270000.0,180000.0,1/08/2022,Single Unit excluding Bach,Residential Zone D,Inside,No appreciable view,Tile Profile,Concrete,Residential-OYO-1970's-average,nill,,,NO,-43.5534246,172.6385471
1/22 LYNDON STREET,RICCARTON,CHRISTCHURCH,8011.0,Unit,2.0,1.0,1.0,,1.0,,60.0,1970.0,450.0,20/08/2025,21.0,Orbit Property Management,445000.0,350000.0,95000.0,1/08/2022,Single Unit excluding Bach,Central City Guest Accommodation,Rear,No appreciable view,Steel/G-Iron,Concrete,Residential-OYO-1970's-average,nill,,,YES,-43.5358905,172.6034222
2/88 BARBOUR STREET,WALTHAM,CHRISTCHURCH,8011.0,Unit,2.0,1.0,1.0,,1.0,,60.0,1995.0,500.0,9/09/2025,19.0,"Cowdy, (Licensed: Reaa 2008)",445000.0,160000.0,285000.0,1/08/2022,Single Unit excluding Bach,Residential Medium Density,Inside,No appreciable view,Steel/G-Iron,Brick,Residential-OYO-1990's-average,nill,,,YES,-43.541874,172.657764
6/22 SPRINGFIELD ROAD,ST ALBANS,CHRISTCHURCH,8014.0,Unit,2.0,1.0,,1.0,1.0,,60.0,1975.0,465.0,4/07/2025,72.0,Harcourts Gold Property Management,440000.0,190000.0,250000.0,1/08/2022,Single Unit excluding Bach,Residential Medium Density,Inside,No appreciable view,Tile Profile,Concrete,Residential-OYO-1970's-average,nill,,,NO,-43.5197101,172.6329397
2/68 TRAFALGAR STREET,ST ALBANS,CHRISTCHURCH,8014.0,Unit,2.0,1.0,1.0,,1.0,,60.0,1970.0,495.0,15/08/2025,34.0,Freedom Property Management Limited,440000.0,265000.0,175000.0,1/08/2022,Single Unit excluding Bach,Residential Suburban Density Transition,Rear,No appreciable view,Tile Profile,Concrete,Residential-OYO-1970's-average,nill,unfurnished,,YES,-43.5101765,172.6359736
5/22 SPRINGFIELD ROAD,ST ALBANS,CHRISTCHURCH,8014.0,Unit,2.0,1.0,,1.0,1.0,,60.0,1975.0,500.0,24/02/2025,85.0,Bcr Property Management,440000.0,190000.0,250000.0,1/08/2022,Single Unit excluding Bach,Residential Medium Density,Inside,No appreciable view,Tile Profile,Concrete,Residential-OYO-1970's-average,partial,fridge;fridge/freezer;washer;washing machine,No,NO,-43.5197131,172.6328338
3/22 SPRINGFIELD ROAD,ST ALBANS,CHRISTCHURCH,8014.0,Unit,2.0,1.0,,1.0,1.0,,60.0,1975.0,550.0,11/05/2025,64.0,Irelands,440000.0,240000.0,200000.0,1/08/2022,Single Unit excluding Bach,Residential Medium Density,Inside,No appreciable view,Tile Profile,Concrete,Residential-OYO-1970's-average,partial,fridge;fridge/freezer;washing machine,,NO,-43.5197051,172.6328973
2/9 ABBOTTS PLACE,AVONHEAD,CHRISTCHURCH,8042.0,Unit,2.0,1.0,,1.0,1.0,,60.0,1970.0,510.0,6/03/2025,29.0,Unity Property Management Ltd.,430000.0,370000.0,60000.0,1/08/2022,Single Unit excluding Bach,Residential Suburban,Rear,No appreciable view,Steel/G-Iron,Concrete,Residential-OYO-1970's-average,nill,,,NO,-43.5226989,172.5440436
2/79 CHAMPION STREET,EDGEWARE,CHRISTCHURCH,8013.0,Unit,2.0,1.0,,1.0,1.0,,60.0,1975.0,420.0,21/07/2025,54.0,Iron Bridge Property Management - Christchurch,420000.0,230000.0,190000.0,1/08/2022,Single Unit excluding Bach,Residential Medium Density,Inside,No appreciable view,Tile Profile,Concrete,Residential-OYO-1970's-average,nill,,Pets OK,NO,-43.5172881,172.6488382
3/33 SPRINGFIELD ROAD,ST ALBANS,CHRISTCHURCH,8014.0,Unit,2.0,1.0,,1.0,1.0,,60.0,1970.0,450.0,29/05/2025,23.0,-,420000.0,225000.0,195000.0,1/08/2022,Single Unit excluding Bach,Residential Medium Density,Rear,No appreciable view,Tile Profile,Concrete,Residential-OYO-1970's-average,nill,,,NO,-43.5194268,172.6322985
2/33 SPRINGFIELD ROAD,ST ALBANS,CHRISTCHURCH,8014.0,Unit,2.0,1.0,,1.0,1.0,,60.0,1970.0,450.0,5/06/2025,21.0,-,420000.0,225000.0,195000.0,1/08/2022,Single Unit excluding Bach,Residential Medium Density,Rear,No appreciable view,Tile Profile,Concrete,Residential-OYO-1970's-average,nill,,Pets OK,NO,-43.5193689,172.6322989
305B RICCARTON ROAD,UPPER RICCARTON,CHRISTCHURCH,8041.0,Unit,2.0,1.0,1.0,,1.0,183.0,60.0,1970.0,495.0,7/08/2025,24.0,Iron Bridge Property Management - Christchurch,420000.0,235000.0,185000.0,1/08/2022,Single Unit excluding Bach,Residential Suburban,Inside,No appreciable view,Tile Profile,Weatherboard,Residential-OYO-1970's-average,nill,,No,YES,-43.5314845,172.5802307
2/26 TOWER STREET,HORNBY,CHRISTCHURCH,8042.0,Unit,2.0,1.0,,1.0,1.0,,60.0,1980.0,500.0,7/04/2025,7.0,-,420000.0,240000.0,180000.0,1/08/2022,Single Unit excluding Bach,Central City Guest Accommodation,Rear,No appreciable view,Steel/G-Iron,Concrete,Residential-OYO-1980's-average,nill,unfurnished,,NO,-43.5455447,172.5272172
3/99 WALTHAM ROAD,SYDENHAM,CHRISTCHURCH,8023.0,Unit,2.0,1.0,,1.0,1.0,,60.0,1975.0,440.0,29/05/2025,7.0,-,410000.0,260000.0,150000.0,1/08/2022,Single Unit excluding Bach,Residential Medium Density,Inside,No appreciable view,Steel/G-Iron,Concrete,Residential-OYO-1970's-average,partial,washing machine,,NO,-43.5499475,172.6463343
5/70 KING STREET,SYDENHAM,CHRISTCHURCH,8023.0,Unit,2.0,1.0,,1.0,1.0,,60.0,1975.0,460.0,4/02/2025,22.0,Realtunity Realestate Limited,410000.0,205000.0,205000.0,1/08/2022,Single Unit excluding Bach,Residential Medium Density,Inside,No appreciable view,Tile Profile,Concrete,Residential-OYO-1970's-average,nill,,Pets OK,NO,-43.5527709,172.6404603
3/15 WALTON STREET,SYDENHAM,CHRISTCHURCH,8023.0,Townhouse,2.0,1.0,1.0,,1.0,106.0,60.0,2025.0,475.0,25/06/2025,60.0,-,410000.0,275000.0,135000.0,1/08/2022,Single Unit excluding Bach,Central City Guest Accommodation,Inside,No appreciable view,Steel/G-Iron,Fibre Cement,Residential-OYO-1990's-poor,Fully Furnished,,,YES,-43.5492236,172.6379721
10 WYON STREET,LINWOOD,CHRISTCHURCH,8062.0,,2.0,1.0,,1.0,1.0,337.0,60.0,1905.0,540.0,14/07/2025,7.0,Keystone Property Management Limited,410000.0,210000.0,200000.0,1/08/2022,Single Unit excluding Bach,Central City Guest Accommodation,Inside,No appreciable view,Steel/G-Iron,"Roughcast,etc",Residential-Dwelling-pre 1914-average,nill,,,NO,-43.5274619,172.6741794
29B HAY STREET,BROMLEY,CHRISTCHURCH,8062.0,Unit,2.0,1.0,,1.0,1.0,,60.0,1975.0,420.0,25/06/2025,2.0,Harcourts Asset Managers,405000.0,215000.0,190000.0,1/08/2022,Single Unit excluding Bach,Central City Guest Accommodation,Inside,No appreciable view,Steel/G-Iron,Concrete,Residential-OYO-1970's-average,nill,,,NO,-43.5350546,172.6800017
1/140 CHAMPION STREET,EDGEWARE,CHRISTCHURCH,8013.0,Unit,2.0,1.0,,1.0,1.0,,60.0,1975.0,445.0,19/03/2025,127.0,Harcourts Gold,405000.0,170000.0,235000.0,1/08/2022,Single Unit excluding Bach,Residential Suburban Density Transition,Inside,No appreciable view,Steel/G-Iron,Concrete,Residential-OYO-1970's-average,,,,NO,-43.5142189,172.649398
19 RANDOLPH STREET,WOOLSTON,CHRISTCHURCH,8062.0,,2.0,1.0,,,,316.0,60.0,1930.0,480.0,14/04/2025,134.0,Holmwood Property Management,405000.0,235000.0,170000.0,1/08/2022,Single Unit excluding Bach,Residential Suburban Density Transition,Inside,No appreciable view,Steel/G-Iron,Weatherboard,Residential-Dwelling-1930's-average,nill,,,NO,-43.5420315,172.6678474
6/161 MARINE PARADE,NEW BRIGHTON,CHRISTCHURCH,8083.0,Unit,2.0,1.0,,1.0,1.0,,60.0,1970.0,505.0,20/01/2025,32.0,Utiger Properties,405000.0,195000.0,210000.0,1/08/2022,Single Unit excluding Bach,Residential Medium Density,Rear,No appreciable view,Tile Profile,Concrete,Residential-OYO-1970's-average,nill,,,NO,-43.5020249,172.7275711
2/504 BARBADOES STREET,EDGEWARE,CHRISTCHURCH,8013.0,Unit,2.0,1.0,,1.0,1.0,,60.0,1975.0,450.0,23/01/2025,8.0,Quinovic Riccarton,400000.0,295000.0,105000.0,1/08/2022,Single Unit excluding Bach,Residential Medium Density,Inside,No appreciable view,Tile Profile,Concrete,Residential-OYO-1970's-average,nill,,,NO,-43.5167753,172.6462979
2/34 EDWARD AVENUE,EDGEWARE,CHRISTCHURCH,8013.0,Unit,2.0,1.0,1.0,,1.0,,60.0,1970.0,490.0,28/01/2025,57.0,Harcourts Four Seasons Property Management Ltd,400000.0,170000.0,230000.0,1/08/2022,Single Unit excluding Bach,Residential Suburban Density Transition,Rear,No appreciable view,Steel/G-Iron,Concrete,Residential-OYO-1970's-average,nill,,,YES,-43.511312,172.645252
8/544 BARBADOES STREET,EDGEWARE,CHRISTCHURCH,8013.0,Unit,2.0,1.0,,1.0,1.0,,60.0,1975.0,450.0,28/04/2025,113.0,Vision Property Management,390000.0,190000.0,200000.0,1/08/2022,Single Unit excluding Bach,Residential Medium Density,Inside,No appreciable view,Steel/G-Iron,Concrete,Residential-OYO-1970's-average,nill,,,NO,-43.5145533,172.6463784
1/54 COLLINGWOOD STREET,NEW BRIGHTON,CHRISTCHURCH,8061.0,Unit,2.0,1.0,,1.0,1.0,,60.0,1975.0,400.0,8/06/2025,7.0,-,385000.0,215000.0,170000.0,1/08/2022,Single Unit excluding Bach,Residential Suburban Density Transition,Inside,No appreciable view,Steel/G-Iron,Concrete,Residential-OYO-1970's-average,nill,,,NO,-43.5099571,172.7257313
1/124 CHAMPION STREET,EDGEWARE,CHRISTCHURCH,8013.0,Unit,2.0,1.0,,1.0,1.0,,60.0,1970.0,450.0,13/03/2025,22.0,Cowdy,385000.0,170000.0,215000.0,1/08/2022,Multi-unit,Residential Suburban Density Transition,Inside,No appreciable view,Steel/G-Iron,Concrete,Residential-OYO-1970's-average,nill,,,NO,-43.5148974,172.6493941
1/11 RUTHERFORD STREET,WOOLSTON,CHRISTCHURCH,8023.0,Unit,3.0,1.0,,,,,60.0,1985.0,560.0,14/08/2025,37.0,Wolfbrook Property Management,385000.0,190000.0,195000.0,1/08/2022,Single Unit excluding Bach,Residential Suburban Density Transition,Inside,No appreciable view,Tile Profile,Concrete,Residential-OYO-1980's-average,,,,NO,-43.5522539,172.6867535
3/16 GROVE ROAD,ADDINGTON,CHRISTCHURCH,8024.0,Unit,2.0,1.0,,1.0,1.0,,60.0,1970.0,465.0,16/01/2025,7.0,Rent Wise Property Management,380000.0,160000.0,220000.0,1/08/2022,Single Unit excluding Bach,Residential Medium Density,Rear,No appreciable view,Steel/G-Iron,Concrete,Residential-OYO-1970's-average,partial,washing machine,,NO,-43.5431719,172.6183907
3/81 SOUTHAMPTON STREET,SYDENHAM,CHRISTCHURCH,8023.0,Unit,2.0,1.0,,1.0,1.0,,60.0,1975.0,395.0,6/03/2025,7.0,Harcourts Asset Managers,375000.0,260000.0,115000.0,1/08/2022,Single Unit excluding Bach,Residential Medium Density,Inside,No appreciable view,Tile Profile,Concrete,Residential-OYO-1970's-average,nill,,,NO,-43.5539168,172.6413476
5/61 BROCKWORTH PLACE,RICCARTON,CHRISTCHURCH,8011.0,Unit,2.0,1.0,1.0,,1.0,,60.0,1970.0,450.0,7/08/2025,2.0,Holmwood Property Management,375000.0,280000.0,95000.0,1/08/2022,Single Unit excluding Bach,Central City Guest Accommodation,Rear,No appreciable view,Tile Profile,Concrete,Residential-OYO-1970's-average,nill,,,YES,-43.531522,172.6093132
4/471 WORCESTER STREET,LINWOOD,CHRISTCHURCH,8011.0,Unit,2.0,1.0,,1.0,1.0,,60.0,1975.0,460.0,9/04/2025,56.0,Iron Bridge Chch 01,375000.0,235000.0,140000.0,1/08/2022,Single Unit excluding Bach,Residential Medium Density,Inside,No appreciable view,Tile Profile,Concrete,Residential-OYO-1970's-average,,,,NO,-43.5309198,172.6527165
4/14A DICKSON CRESCENT,HORNBY,CHRISTCHURCH,8042.0,Unit,2.0,1.0,,1.0,1.0,,60.0,1970.0,470.0,12/08/2025,43.0,"Optimal Property Management & Maintenance, (Licensed: Reaa 2008)",375000.0,225000.0,150000.0,1/08/2022,Single Unit excluding Bach,Residential Suburban,Rear,No appreciable view,Tile Profile,Concrete,Residential-OYO-1970's-average,nill,,,NO,-43.5452048,172.538332
2/2 GREENPARK STREET,HOON HAY,CHRISTCHURCH,8025.0,,1.0,1.0,,1.0,1.0,71.0,60.0,2025.0,420.0,19/06/2025,2.0,Freedom Property Management Limited,370000.0,265000.0,105000.0,1/08/2022,Single Unit excluding Bach,Residential Suburban,Inside,No appreciable view,Steel/G-Iron,Concrete,Residential-OYO-1970's-average,nill,,,NO,-43.5633358,172.6106171
5/11 ALLARD STREET,EDGEWARE,CHRISTCHURCH,8013.0,Unit,2.0,1.0,1.0,,1.0,,60.0,1970.0,430.0,9/03/2025,22.0,Irelands,370000.0,125000.0,245000.0,1/08/2022,Single Unit excluding Bach,Residential Suburban Density Transition,Rear,No appreciable view,Steel/G-Iron,Concrete,Residential-OYO-1970's-average,nill,,,YES,-43.512656,172.643652
3/126 GERALDINE STREET,EDGEWARE,CHRISTCHURCH,8013.0,Unit,2.0,1.0,,1.0,1.0,,60.0,1965.0,440.0,29/07/2025,3.0,"Braziers Limited, (Licensed: Reaa 2008)",370000.0,200000.0,170000.0,1/08/2022,Single Unit excluding Bach,Residential Suburban Density Transition,Inside,No appreciable view,Steel/G-Iron,Concrete,Residential-OYO-1960's-average,nill,,Pets OK,NO,-43.5148298,172.6479156
3/138 HASTINGS STREET EAST,SYDENHAM,CHRISTCHURCH,8023.0,Unit,2.0,1.0,,1.0,1.0,,60.0,1975.0,450.0,25/06/2025,2.0,A1 Property Managers Ltd,370000.0,245000.0,125000.0,1/08/2022,Single Unit excluding Bach,Residential Medium Density,Inside,No appreciable view,Steel/G-Iron,Concrete,Residential-OYO-1970's-average,nill,,No,NO,-43.5487266,172.6459748
1/23 OXLEY AVENUE,ST ALBANS,CHRISTCHURCH,8014.0,Unit,2.0,1.0,1.0,,1.0,,60.0,1970.0,410.0,13/02/2025,15.0,Rentworks Property Management Ltd,365000.0,160000.0,205000.0,1/08/2022,Single Unit excluding Bach,Residential Suburban Density Transition,Inside,No appreciable view,Steel/G-Iron,Concrete,Residential-OYO-1970's-average,nill,,,YES,-43.5091444,172.6399917
4/225 EDGEWARE ROAD,EDGEWARE,CHRISTCHURCH,8013.0,Unit,2.0,1.0,1.0,,1.0,,60.0,1970.0,450.0,13/03/2025,7.0,Quinovic Merivale,360000.0,143000.0,217000.0,1/08/2022,Single Unit excluding Bach,Residential Suburban Density Transition,Rear,No appreciable view,Steel/G-Iron,Concrete,Residential-OYO-1970's-average,partial,dining table,,YES,-43.5130342,172.6485049
1/738 FERRY ROAD,WOOLSTON,CHRISTCHURCH,8023.0,Unit,2.0,1.0,,1.0,1.0,,60.0,1975.0,475.0,8/09/2025,9.0,Grenadier Rent Shop Ltd,360000.0,195000.0,165000.0,1/08/2022,Single Unit excluding Bach,Residential Suburban Density Transition,Inside,No appreciable view,Tile Profile,Concrete,Residential-OYO-1970's-average,nill,,,NO,-43.5531766,172.6897835
5/33 TORRENS ROAD,HILLMORTON,CHRISTCHURCH,8024.0,Unit,2.0,1.0,,1.0,1.0,,60.0,1970.0,480.0,17/06/2025,44.0,Iron Bridge Property Management - Christchurch,360000.0,145000.0,215000.0,1/08/2022,Single Unit excluding Bach,Residential Suburban,Rear,No appreciable view,Steel/G-Iron,Concrete,Residential-OYO-1970's-average,nill,,,NO,-43.5489584,172.5974635
6/225 EDGEWARE ROAD,EDGEWARE,CHRISTCHURCH,8013.0,Unit,2.0,1.0,1.0,,1.0,,60.0,1970.0,489.0,18/08/2025,24.0,A1 Property Managers Ltd,360000.0,143000.0,217000.0,1/08/2022,Single Unit excluding Bach,Residential Suburban Density Transition,Rear,No appreciable view,Steel/G-Iron,Concrete,Residential-OYO-1970's-average,nill,,,YES,-43.5129064,172.648536
1/35 NEILL STREET,HORNBY,CHRISTCHURCH,8042.0,Unit,2.0,1.0,,1.0,1.0,,60.0,1970.0,490.0,12/08/2025,29.0,Wolfbrook Property Management,360000.0,255000.0,105000.0,1/08/2022,Single Unit excluding Bach,Residential Suburban,Inside,No appreciable view,Steel/G-Iron,Mix.Material,Residential-OYO-1970's-average,nill,,,NO,-43.5453944,172.5341478
1/422 ARMAGH STREET,LINWOOD,CHRISTCHURCH,8011.0,Unit,2.0,1.0,1.0,,1.0,,60.0,1975.0,410.0,10/02/2025,7.0,"Cowdy, (Licensed: Reaa 2008)",355000.0,205000.0,150000.0,1/08/2022,Single Unit excluding Bach,Residential Medium Density,Inside,No appreciable view,Tile Profile,Concrete,Residential-OYO-1970's-average,partial,dryer;washing machine,,YES,-43.5289027,172.6546623
5/579 BARBADOES STREET,EDGEWARE,CHRISTCHURCH,8013.0,Unit,2.0,1.0,1.0,,1.0,,60.0,1970.0,460.0,4/04/2025,8.0,Cowdy,355000.0,170000.0,185000.0,1/08/2022,Single Unit excluding Bach,Residential Suburban Density Transition,Rear,No appreciable view,Steel/G-Iron,Concrete,Residential-OYO-1970's-average,nill,,,YES,-43.512938,172.645205
2/41 ROSSITER AVENUE,REDWOOD,CHRISTCHURCH,8051.0,,1.0,1.0,,1.0,1.0,71.0,60.0,2025.0,430.0,31/03/2025,22.0,Jeban Holdings Limited T/A Pukeko Rental Managers - Christchurch,350000.0,240000.0,110000.0,1/08/2022,Single Unit excluding Bach,Residential Suburban,Rear,No appreciable view,Steel/G-Iron,Concrete,Residential-OYO-1960's-average,nill,,No,NO,-43.4732338,172.6132906
3/20 CADOGAN STREET,SYDENHAM,CHRISTCHURCH,8023.0,Unit,2.0,1.0,,1.0,1.0,,60.0,1975.0,350.0,21/02/2025,7.0,"Whittle Knight Real Estate Ltd, (Licensed: Reaa 2008)",350000.0,225000.0,125000.0,1/08/2022,Single Unit excluding Bach,Central City Guest Accommodation,Inside,No appreciable view,Tile Profile,Concrete,Residential-OYO-1970's-average,nill,,,NO,-43.5489834,172.6404067
2/36 GERALDINE STREET,EDGEWARE,CHRISTCHURCH,8013.0,Unit,2.0,1.0,,1.0,1.0,,60.0,1975.0,380.0,28/07/2025,7.0,Xclusive Property Management,350000.0,265000.0,85000.0,1/08/2022,Single Unit excluding Bach,Residential Medium Density,Inside,No appreciable view,Tile Profile,Concrete,Residential-OYO-1970's-average,nill,,,NO,-43.5191313,172.6478377
3/158 STANMORE ROAD,LINWOOD,CHRISTCHURCH,8011.0,Unit,2.0,1.0,1.0,,1.0,,60.0,1975.0,390.0,12/05/2025,246.0,Diane Astle Realty Ltd Mreinz Licensed (Reaa 2008),350000.0,175000.0,175000.0,1/08/2022,Single Unit excluding Bach,Residential Medium Density,Inside,No appreciable view,Tile Profile,Concrete,Residential-OYO-1970's-average,nill,,,YES,-43.5272776,172.6574795
3/23 OXLEY AVENUE,ST ALBANS,CHRISTCHURCH,8014.0,Unit,2.0,1.0,1.0,,1.0,,60.0,1970.0,400.0,23/01/2025,70.0,-,350000.0,160000.0,190000.0,1/08/2022,Single Unit excluding Bach,Residential Suburban Density Transition,Rear,No appreciable view,Steel/G-Iron,Concrete,Residential-OYO-1970's-average,nill,,,YES,-43.5089828,172.6399546
2/45 GRESFORD STREET,EDGEWARE,CHRISTCHURCH,8013.0,Unit,2.0,1.0,,1.0,1.0,,60.0,1975.0,430.0,15/07/2025,120.0,"Irelands, (Licensed: Reaa 2008)",350000.0,230000.0,120000.0,1/08/2022,Single Unit excluding Bach,Residential Suburban Density Transition,Inside,No appreciable view,Steel/G-Iron,Concrete,Residential-OYO-1970's-average,nill,,,NO,-43.5164999,172.6506751
1/45 SOUTHAMPTON STREET,SYDENHAM,CHRISTCHURCH,8023.0,Unit,2.0,1.0,,,,,60.0,1975.0,430.0,19/08/2025,23.0,Harcourts Asset Managers,350000.0,190000.0,160000.0,1/08/2022,Single Unit excluding Bach,Residential Zone D,Inside,No appreciable view,Tile Profile,Concrete,Residential-OYO-1970's-average,nill,,,NO,-43.5527393,172.6394386
2/17 PERCY STREET,PHILLIPSTOWN,CHRISTCHURCH,8011.0,Unit,2.0,1.0,,1.0,1.0,,60.0,1975.0,440.0,16/05/2025,7.0,Harcourts Gold Property Management,350000.0,130000.0,220000.0,1/08/2022,Single Unit excluding Bach,Residential Medium Density,Inside,No appreciable view,Steel/G-Iron,"Roughcast,etc",Residential-OYO-1970's-average,,,,NO,-43.5345506,172.6592966
2/38 NORTH AVON ROAD,RICHMOND,CHRISTCHURCH,8013.0,Unit,2.0,1.0,,1.0,1.0,,60.0,1965.0,440.0,4/06/2025,15.0,"Holmwood Property Management - Sherborne, (Licensed: Reaa 2008)",350000.0,175000.0,175000.0,1/08/2022,Single Unit excluding Bach,Residential Zone D,Inside,No appreciable view,Steel/G-Iron,Brick,Residential-OYO-1960's-average,partial,washing machine,No,NO,-43.5178148,172.6544764
2/41 CHAMPION STREET,EDGEWARE,CHRISTCHURCH,8013.0,Unit,2.0,1.0,,1.0,1.0,,60.0,1965.0,480.0,5/06/2025,36.0,Wolfbrook Property Management,350000.0,265000.0,85000.0,1/08/2022,Single Unit excluding Bach,Residential Medium Density,Inside,No appreciable view,Steel/G-Iron,Brick,Residential-OYO-1960's-average,nill,,Pets OK,NO,-43.5187509,172.648819
518 BARBADOES STREET,EDGEWARE,CHRISTCHURCH,8013.0,Unit,2.0,1.0,,1.0,1.0,,60.0,1975.0,495.0,20/03/2025,29.0,"Irelands, (Licensed: Reaa 2008)",350000.0,265000.0,85000.0,1/08/2022,Single Unit excluding Bach,Residential Medium Density,Inside,No appreciable view,Tile Profile,Concrete,Residential-OYO-1970's-average,nill,,,NO,-43.5160395,172.6461458
2/238 MILTON STREET,SYDENHAM,CHRISTCHURCH,8023.0,Unit,2.0,1.0,,1.0,1.0,,60.0,1975.0,420.0,18/08/2025,185.0,Iron Bridge Property Management - Christchurch,345000.0,205000.0,140000.0,1/08/2022,Single Unit excluding Bach,Residential Zone D,Inside,No appreciable view,Steel/G-Iron,Concrete,Residential-OYO-1970's-average,nill,,Pets OK,NO,-43.5508594,172.6341767
2/26 FREDERICK STREET,WALTHAM,CHRISTCHURCH,8011.0,Unit,2.0,1.0,,2.0,6.0,,60.0,1975.0,460.0,5/05/2025,22.0,Birds Nest Property Management,340000.0,120000.0,220000.0,1/08/2022,Single Unit excluding Bach,Residential Suburban Density Transition,Inside,No appreciable view,Steel/G-Iron,Concrete,Residential-OYO-1970's-average,nill,,,NO,-43.543279,172.662775
2/108 CRANFORD STREET,ST ALBANS,CHRISTCHURCH,8014.0,Unit,2.0,1.0,1.0,,1.0,,60.0,1970.0,440.0,19/05/2025,77.0,"Irelands, (Licensed: Reaa 2008)",330000.0,137000.0,193000.0,1/08/2022,Single Unit excluding Bach,Residential Suburban Density Transition,Rear,No appreciable view,Steel/G-Iron,Brick,Residential-OYO-1970's-average,nill,,,YES,-43.5081444,172.638171
3/560 HEREFORD STREET,LINWOOD,CHRISTCHURCH,8011.0,Unit,2.0,1.0,1.0,,1.0,,60.0,1975.0,450.0,11/08/2025,30.0,"Whittle Knight Real Estate Ltd, (Licensed: Reaa 2008)",330000.0,140000.0,190000.0,1/08/2022,Single Unit excluding Bach,Central City Guest Accommodation,Inside,No appreciable view,Steel/G-Iron,Concrete,Residential-OYO-1970's-average,nill,,No,YES,-43.5323944,172.6652974
2/560 HEREFORD STREET,LINWOOD,CHRISTCHURCH,8011.0,Unit,2.0,1.0,1.0,,1.0,,60.0,1975.0,460.0,9/07/2025,15.0,Harcourts Four Seasons Property Management Ltd,330000.0,140000.0,190000.0,1/08/2022,Single Unit excluding Bach,Central City Guest Accommodation,Inside,No appreciable view,Steel/G-Iron,Concrete,Residential-OYO-1970's-average,nill,,Pets OK,YES,-43.5322514,172.6652981
87A HILLS ROAD,EDGEWARE,CHRISTCHURCH,8013.0,Unit,2.0,1.0,,1.0,1.0,,60.0,1965.0,529.0,4/02/2025,8.0,A1 Property Managers Ltd,330000.0,180000.0,150000.0,1/08/2022,Single Unit excluding Bach,Residential Suburban Density Transition,Inside,No appreciable view,Steel/G-Iron,Concrete,Residential-OYO-1960's-average,nill,,Pets OK,NO,-43.5142561,172.6510254
1/34 WHITMORE STREET,EDGEWARE,CHRISTCHURCH,8013.0,Unit,2.0,1.0,,,,,60.0,1945.0,400.0,31/08/2025,325.0,Grenadier Rent Shop Limited,325000.0,185000.0,140000.0,1/08/2022,Single Unit excluding Bach,Residential Medium Density,Inside,No appreciable view,Fibre Cement,Fibre Cement,Residential-OYO-1940's-average,,,,NO,-43.5192306,172.6509034
